[
	{
		"name": "Regal Aviation Mall",
		"path_name": "regal-aviation-mall-1731",
		"theatre_code": "1731",
		"address": "578 Aviation Rd",
		"city": "Queensbury",
		"state": "NY",
		"postal_code": "12804",
		"latitude": 43.3281,
		"longitude": -73.6802,
		"phone_number": "(844) 462-7342",
		"pwp_availability": false,
		"iana_timezone": "US/Eastern",
		"value_day_text": "$6.50 every Tuesday",
		"unlimited_tier": "3"
	},
	{
		"name": "Regal Fossil Creek",
		"path_name": "regal-fossil-creek-1317",
		"theatre_code": "1317",
		"address": "N. 6100 Freeway",
		"city": "Ft Worth",
		"state": "TX",
		"postal_code": "76137",
		"latitude": 32.8532,
		"longitude": -97.3123,
		"phone_number": "(844) 462-7342",
		"pwp_availability": true,
		"iana_timezone": "US/Central",
		"value_day_text": "$5.00 every Tuesday",
		"unlimited_tier": "1"
	},
	{
		"name": "Regal The Landing",
		"path_name": "regal-the-landing-1935",
		"theatre_code": "1935",
		"address": "900 N 10th Place",
		"city": "Renton",
		"state": "WA",
		"postal_code": "98057",
		"latitude": 47.4982,
		"longitude": -122.2042,
		"phone_number": "(844) 462-7342",
		"pwp_availability": true,
		"iana_timezone": "US/Pacific",
		"value_day_text": "$6.50 every Tuesday",
		"unlimited_tier": "2"
	},
	{
		"name": "Regal Warren Midwest City",
		"path_name": "regal-midwest-city-1482",
		"theatre_code": "1482",
		"address": "5905 SE 15th Street",
		"city": "Midwest City",
		"state": "OK",
		"postal_code": "73110",
		"latitude": 35.45315,
		"longitude": -97.4182,
		"phone_number": "(844) 462-7342",
		"pwp_availability": true,
		"iana_timezone": "US/Central",
		"value_day_text": "$5.50 every Tuesday",
		"unlimited_tier": "2"
	},
	{
		"name": "Regal North Hollywood",
		"path_name": "regal-north-hollywood-1438",
		"theatre_code": "1438",
		"address": "6150 Laurel Canyon Blvd., #200",
		"city": "North Hollywood",
		"state": "CA",
		"postal_code": "91606",
		"latitude": 34.18134,
		"longitude": -118.39414,
		"phone_number": "(844) 462-7342",
		"pwp_availability": true,
		"iana_timezone": "US/Pacific",
		"value_day_text": "$6.50 every Tuesday",
		"unlimited_tier": "2"
	},
	{
		"name": "Regal UA Washington Township",
		"path_name": "regal-ua-washington-township-1281",
		"theatre_code": "1281",
		"address": "121 Tuckahoe Road",
		"city": "Sewell",
		"state": "NJ",
		"postal_code": "08080",
		"latitude": 39.7224,
		"longitude": -75.0309,
		"phone_number": "(844) 462-7342",
		"pwp_availability": false,
		"iana_timezone": "US/Eastern",
		"value_day_text": "$6.50 every Tuesday",
		"unlimited_tier": "2"
	},
	{
		"name": "Regal Santa Rosa",
		"path_name": "regal-santa-rosa-1195",
		"theatre_code": "1195",
		"address": "300 Mary Esther Blvd.",
		"city": "Mary Esther",
		"state": "FL",
		"postal_code": "32569",
		"latitude": 30.4145,
		"longitude": -86.6541,
		"phone_number": "(844) 462-7342",
		"pwp_availability": true,
		"iana_timezone": "US/Central",
		"value_day_text": "$5.50 every Tuesday",
		"unlimited_tier": "1"
	},
	{
		"name": "Regal Hunt Valley",
		"path_name": "regal-hunt-valley-1711",
		"theatre_code": "1711",
		"address": "11511 McCormick Rd",
		"city": "Hunt Valley",
		"state": "MD",
		"postal_code": "21030",
		"latitude": 39.4994,
		"longitude": -76.6562,
		"phone_number": "(844) 462-7342",
		"pwp_availability": true,
		"iana_timezone": "US/Eastern",
		"value_day_text": "$6.50 every Tuesday",
		"unlimited_tier": "2"
	},
	{
		"name": "Regal San Jacinto Metro",
		"path_name": "regal-san-jacinto-metro-1804",
		"theatre_code": "1804",
		"address": "1599 San Jacinto Ave",
		"city": "San Jacinto",
		"state": "CA",
		"postal_code": "92583",
		"latitude": 33.7723,
		"longitude": -116.9566,
		"phone_number": "(844) 462-7342",
		"pwp_availability": true,
		"iana_timezone": "US/Pacific",
		"value_day_text": "$6.50 every Tuesday",
		"unlimited_tier": "2"
	},
	{
		"name": "Regal UA Cottonwood",
		"path_name": "regal-ua-cottonwood-1307",
		"theatre_code": "1307",
		"address": "10000 NW Coors Blvd.",
		"city": "Albuquerque",
		"state": "NM",
		"postal_code": "87114",
		"latitude": 35.1925,
		"longitude": -106.6554,
		"phone_number": "(844) 462-7342",
		"pwp_availability": true,
		"iana_timezone": "US/Mountain",
		"value_day_text": "$6.00 every Tuesday",
		"unlimited_tier": "2"
	},
	{
		"name": "Regal UA Main Street",
		"path_name": "regal-ua-main-street-theatre-1314",
		"theatre_code": "1314",
		"address": "3720-40 Main Street",
		"city": "Manayunk",
		"state": "PA",
		"postal_code": "19127",
		"latitude": 40.0153,
		"longitude": -75.2097,
		"phone_number": "(844) 462-7342",
		"pwp_availability": false,
		"iana_timezone": "US/Eastern",
		"value_day_text": "$6.50 every Tuesday",
		"unlimited_tier": "2"
	},
	{
		"name": "Regal Winter Park Village",
		"path_name": "regal-winter-park-village-0721",
		"theatre_code": "0721",
		"address": "510 North Orlando Ave",
		"city": "Winter Park",
		"state": "FL",
		"postal_code": "32789",
		"latitude": 28.603,
		"longitude": -81.365,
		"phone_number": "(844) 462-7342",
		"pwp_availability": true,
		"iana_timezone": "US/Eastern",
		"value_day_text": "$6.50 every Tuesday",
		"unlimited_tier": "2"
	},
	{
		"name": "Regal Champlain Centre",
		"path_name": "regal-champlain-centre-1734",
		"theatre_code": "1734",
		"address": "60 Smithfield Blvd, Suite 90",
		"city": "Plattsburgh",
		"state": "NY",
		"postal_code": "12901",
		"latitude": 44.7023,
		"longitude": -73.4951,
		"phone_number": "(844) 462-7342",
		"pwp_availability": true,
		"iana_timezone": "US/Eastern",
		"value_day_text": "$6.50 every Tuesday",
		"unlimited_tier": "2"
	},
	{
		"name": "Regal Salmon Run",
		"path_name": "regal-salmon-run-1946",
		"theatre_code": "1946",
		"address": "21182 Salmon Run Mall Loop W",
		"city": "Watertown",
		"state": "NY",
		"postal_code": "13601",
		"latitude": 43.9756,
		"longitude": -75.9005,
		"phone_number": "(844) 462-7342",
		"pwp_availability": true,
		"iana_timezone": "US/Eastern",
		"value_day_text": "$7.00 every Tuesday",
		"unlimited_tier": "2"
	},
	{
		"name": "Regal Escondido",
		"path_name": "regal-escondido-1805",
		"theatre_code": "1805",
		"address": "350 W Valley Parkway",
		"city": "Escondido",
		"state": "CA",
		"postal_code": "92025",
		"latitude": 33.121,
		"longitude": -117.086,
		"phone_number": "(844) 462-7342",
		"pwp_availability": true,
		"iana_timezone": "US/Pacific",
		"value_day_text": "$6.50 every Tuesday",
		"unlimited_tier": "3"
	},
	{
		"name": "Regal Westchester Commons",
		"path_name": "regal-westchester-commons-1936",
		"theatre_code": "1936",
		"address": "361 Perimeter Drive",
		"city": "Midlothian",
		"state": "VA",
		"postal_code": "23114",
		"latitude": 37.5117,
		"longitude": -77.697,
		"phone_number": "(844) 462-7342",
		"pwp_availability": true,
		"iana_timezone": "US/Eastern",
		"value_day_text": "$6.00 every Tuesday",
		"unlimited_tier": "2"
	},
	{
		"name": "Regal San Bernardino",
		"path_name": "regal-san-bernardino-1799",
		"theatre_code": "1799",
		"address": "450 N. E Street",
		"city": "San Bernardino",
		"state": "CA",
		"postal_code": "92401",
		"latitude": 34.1083,
		"longitude": -117.2942,
		"phone_number": "(844) 462-7342",
		"pwp_availability": true,
		"iana_timezone": "US/Pacific",
		"value_day_text": "$6.00 every Tuesday",
		"unlimited_tier": "1"
	},
	{
		"name": "Regal New River Valley",
		"path_name": "regal-new-river-valley-0671",
		"theatre_code": "0671",
		"address": "110 New River Road",
		"city": "Christianburg",
		"state": "VA",
		"postal_code": "24073",
		"latitude": 37.1653,
		"longitude": -80.4244,
		"phone_number": "(844) 462-7342",
		"pwp_availability": true,
		"iana_timezone": "US/Eastern",
		"value_day_text": "$6.00 every Tuesday",
		"unlimited_tier": "2"
	},
	{
		"name": "Regal UA Commerce Township",
		"path_name": "regal-ua-commerce-township-1294",
		"theatre_code": "1294",
		"address": "3033 Springvale Drive",
		"city": "Walled Lake",
		"state": "MI",
		"postal_code": "48390",
		"latitude": 42.527,
		"longitude": -83.4374,
		"phone_number": "(844) 462-7342",
		"pwp_availability": true,
		"iana_timezone": "US/Eastern",
		"value_day_text": "$5.00 every Tuesday",
		"unlimited_tier": "1"
	},
	{
		"name": "Regal Greenwood",
		"path_name": "regal-greenwood-1794",
		"theatre_code": "1794",
		"address": "461 Greenwood Park South Drive",
		"city": "Greenwood",
		"state": "IN",
		"postal_code": "46142",
		"latitude": 39.6311,
		"longitude": -86.1066,
		"phone_number": "(844) 462-7342",
		"pwp_availability": true,
		"iana_timezone": "US/Eastern",
		"value_day_text": "$6.50 every Tuesday",
		"unlimited_tier": "1"
	},
	{
		"name": "Regal City North",
		"path_name": "regal-city-north-1789",
		"theatre_code": "1789",
		"address": "2600 N. Western Avenue",
		"city": "Chicago",
		"state": "IL",
		"postal_code": "60647",
		"latitude": 41.9287,
		"longitude": -87.688,
		"phone_number": "(844) 462-7342",
		"pwp_availability": true,
		"iana_timezone": "US/Central",
		"value_day_text": "$6.50 every Tuesday",
		"unlimited_tier": "2"
	},
	{
		"name": "Regal Plymouth Meeting",
		"path_name": "regal-plymouth-meeting-0234",
		"theatre_code": "0234",
		"address": "1011 Ridge Pike",
		"city": "Conshohocken",
		"state": "PA",
		"postal_code": "19428",
		"latitude": 40.0994,
		"longitude": -75.3061,
		"phone_number": "(844) 462-7342",
		"pwp_availability": true,
		"iana_timezone": "US/Eastern",
		"value_day_text": "$6.00 every Tuesday",
		"unlimited_tier": "2"
	},
	{
		"name": "Regal UA Farmingdale",
		"path_name": "regal-ua-farmingdale-1319",
		"theatre_code": "1319",
		"address": "20 Michael Avenue",
		"city": "Farmingdale",
		"state": "NY",
		"postal_code": "11735",
		"latitude": 40.7258,
		"longitude": -73.4246,
		"phone_number": "(844) 462-7342",
		"pwp_availability": false,
		"iana_timezone": "US/Eastern",
		"value_day_text": "$7.50 every Tuesday",
		"unlimited_tier": "3"
	},
	{
		"name": "Regal Citrus Cinemas",
		"path_name": "regal-citrus-cinemas-0206",
		"theatre_code": "0206",
		"address": "2635 E. Gulf to Lake Highway",
		"city": "Inverness",
		"state": "FL",
		"postal_code": "34453",
		"latitude": 28.8553,
		"longitude": -82.3978,
		"phone_number": "(844) 462-7342",
		"pwp_availability": true,
		"iana_timezone": "US/Eastern",
		"value_day_text": "$6.00 every Tuesday",
		"unlimited_tier": "1"
	},
	{
		"name": "Regal Cinebarre Movieland",
		"path_name": "regal-cinebarre-movieland-1959",
		"theatre_code": "1959",
		"address": "501 Marion Street N.E.",
		"city": "Salem",
		"state": "OR",
		"postal_code": "97301",
		"latitude": 44.9586,
		"longitude": -123.0026,
		"phone_number": "(844) 462-7342",
		"pwp_availability": true,
		"iana_timezone": "US/Pacific",
		"value_day_text": "$6.00 every Tuesday",
		"unlimited_tier": "2"
	},
	{
		"name": "Regal Yorba Linda",
		"path_name": "regal-yorba-linda-1430",
		"theatre_code": "1430",
		"address": "4870 Valencia Ave.",
		"city": "Yorba Linda",
		"state": "CA",
		"postal_code": "92886",
		"latitude": 33.8904,
		"longitude": -117.81191,
		"phone_number": "(844) 462-7342",
		"pwp_availability": false,
		"iana_timezone": "US/Pacific",
		"value_day_text": "$5.50 every Tuesday",
		"unlimited_tier": "2"
	},
	{
		"name": "Regal Cinebarre Palace Station",
		"path_name": "regal-cinebarre-palace-station-1463",
		"theatre_code": "1463",
		"address": "2411 W. Sahara Ave",
		"city": "Las Vegas",
		"state": "NV",
		"postal_code": "89102",
		"latitude": 36.1442,
		"longitude": -115.17414,
		"phone_number": "(844) 462-7342",
		"pwp_availability": true,
		"iana_timezone": "US/Pacific",
		"value_day_text": "$7.00 every Tuesday",
		"unlimited_tier": "1"
	},
	{
		"name": "Regal Cascade",
		"path_name": "regal-cascade-0845",
		"theatre_code": "0845",
		"address": "1101 SE 160th Avenue",
		"city": "Vancouver",
		"state": "WA",
		"postal_code": "98683",
		"latitude": 45.6127,
		"longitude": -122.5077,
		"phone_number": "(844) 462-7342",
		"pwp_availability": true,
		"iana_timezone": "US/Pacific",
		"value_day_text": "$5.00 every Tuesday",
		"unlimited_tier": "2"
	},
	{
		"name": "Regal Sherman Oaks Galleria",
		"path_name": "regal-sherman-oaks-galleria-1483",
		"theatre_code": "1483",
		"address": "15301 Ventura Blvd. Bldg A, 3rd Floor, Suite 300",
		"city": "Sherman Oaks",
		"state": "CA",
		"postal_code": "91403",
		"latitude": 34.15644,
		"longitude": -118.46705,
		"phone_number": "(844) 462-7342",
		"pwp_availability": true,
		"iana_timezone": "US/Pacific",
		"value_day_text": "$7.00 every Tuesday",
		"unlimited_tier": "3"
	},
	{
		"name": "Regal Tikahtnu",
		"path_name": "regal-tikahtnu-1994",
		"theatre_code": "1994",
		"address": "1102 North Muldoon Rd Suite B",
		"city": "Anchorage",
		"state": "AK",
		"postal_code": "99504",
		"latitude": 61.2045,
		"longitude": -149.7485,
		"phone_number": "(844) 462-7342",
		"pwp_availability": true,
		"iana_timezone": "US/Alaska",
		"value_day_text": "$6.50 every Tuesday",
		"unlimited_tier": "2"
	},
	{
		"name": "Regal LA Live",
		"path_name": "regal-la-live-1484",
		"theatre_code": "1484",
		"address": "1000 W Olympic Boulevard",
		"city": "Los Angeles",
		"state": "CA",
		"postal_code": "90015",
		"latitude": 34.0461,
		"longitude": -118.267,
		"phone_number": "(844) 462-7342",
		"pwp_availability": true,
		"iana_timezone": "US/Pacific",
		"value_day_text": "$7.00 every Tuesday",
		"unlimited_tier": "3"
	},
	{
		"name": "Regal Kapolei Commons",
		"path_name": "regal-kapolei-commons-1951",
		"theatre_code": "1951",
		"address": "4450 Kapolei Parkway Suite 500",
		"city": "Kapolei",
		"state": "HI",
		"postal_code": "96707",
		"latitude": 21.3305,
		"longitude": -158.09419,
		"phone_number": "(844) 462-7342",
		"pwp_availability": true,
		"iana_timezone": "US/Hawaii",
		"value_day_text": "$6.50 every Tuesday",
		"unlimited_tier": "2"
	},
	{
		"name": "Regal Jack London",
		"path_name": "regal-jack-london-1808",
		"theatre_code": "1808",
		"address": "100 Washington Street",
		"city": "Oakland",
		"state": "CA",
		"postal_code": "94607",
		"latitude": 37.7963,
		"longitude": -122.2773,
		"phone_number": "(844) 462-7342",
		"pwp_availability": true,
		"iana_timezone": "US/Pacific",
		"value_day_text": "$5.50 every Sunday & Tuesday",
		"unlimited_tier": "2"
	},
	{
		"name": "Regal Galleria Mall",
		"path_name": "regal-galleria-mall-1740",
		"theatre_code": "1740",
		"address": "2001 South Road",
		"city": "Poughkeepsie",
		"state": "NY",
		"postal_code": "12601",
		"latitude": 41.6268,
		"longitude": -73.9194,
		"phone_number": "(844) 462-7342",
		"pwp_availability": true,
		"iana_timezone": "US/Eastern",
		"value_day_text": "$6.50 every Tuesday",
		"unlimited_tier": "3"
	},
	{
		"name": "Regal Streets of Indian Lake",
		"path_name": "regal-streets-of-indian-lake-1926",
		"theatre_code": "1926",
		"address": "300 Indian Lake Blvd, Blding T",
		"city": "Hendersonville",
		"state": "TN",
		"postal_code": "37075",
		"latitude": 36.3297,
		"longitude": -86.5905,
		"phone_number": "(844) 462-7342",
		"pwp_availability": true,
		"iana_timezone": "US/Central",
		"value_day_text": "$6.00 every Tuesday",
		"unlimited_tier": "1"
	},
	{
		"name": "Regal Manassas",
		"path_name": "regal-manassas-1751",
		"theatre_code": "1751",
		"address": "11380 Bulloch Dr",
		"city": "Manassas",
		"state": "VA",
		"postal_code": "20109",
		"latitude": 38.8026,
		"longitude": -77.5305,
		"phone_number": "(844) 462-7342",
		"pwp_availability": true,
		"iana_timezone": "US/Eastern",
		"value_day_text": "$6.50 every Tuesday",
		"unlimited_tier": "2"
	},
	{
		"name": "Regal Virginia Gateway",
		"path_name": "regal-virginia-gateway-1675",
		"theatre_code": "1675",
		"address": "8001 Gateway Promenade Place",
		"city": "Gainesville",
		"state": "VA",
		"postal_code": "20155",
		"latitude": 38.7891,
		"longitude": -77.6068,
		"phone_number": "(844) 462-7342",
		"pwp_availability": true,
		"iana_timezone": "US/Eastern",
		"value_day_text": "$6.50 every Tuesday",
		"unlimited_tier": "2"
	},
	{
		"name": "Regal Stonefield",
		"path_name": "regal-stonefield-1969",
		"theatre_code": "1969",
		"address": "1954 Swanson Drive",
		"city": "Charlottesville",
		"state": "VA",
		"postal_code": "22901",
		"latitude": 38.0656,
		"longitude": -78.4932,
		"phone_number": "(844) 462-7342",
		"pwp_availability": true,
		"iana_timezone": "US/Eastern",
		"value_day_text": "$6.50 every Tuesday",
		"unlimited_tier": "3"
	},
	{
		"name": "Regal Marketplace @ El Paseo",
		"path_name": "regal-marketplace-at-el-paseo-1433",
		"theatre_code": "1433",
		"address": "6455 N. Riverside Drive",
		"city": "Fresno",
		"state": "CA",
		"postal_code": "93722",
		"latitude": 36.83414,
		"longitude": -119.91108,
		"phone_number": "(844) 462-7342",
		"pwp_availability": true,
		"iana_timezone": "US/Pacific",
		"value_day_text": "$6.50 every Tuesday",
		"unlimited_tier": "2"
	},
	{
		"name": "Regal Dania Pointe",
		"path_name": "regal-dania-pointe-1474",
		"theatre_code": "1474",
		"address": "128 Sunset Drive",
		"city": "Dania Beach",
		"state": "FL",
		"postal_code": "33004",
		"latitude": 26.0536,
		"longitude": -80.16119,
		"phone_number": "(844) 462-7342",
		"pwp_availability": true,
		"iana_timezone": "US/Eastern",
		"value_day_text": "$7.50 every Tuesday",
		"unlimited_tier": "2"
	},
	{
		"name": "Regal UA Galaxy - Dallas",
		"path_name": "regal-ua-galaxy-theatre-dallas-1306",
		"theatre_code": "1306",
		"address": "11801 Mccree Road",
		"city": "Dallas",
		"state": "TX",
		"postal_code": "75238",
		"latitude": 32.8726,
		"longitude": -96.687,
		"phone_number": "(844) 462-7342",
		"pwp_availability": true,
		"iana_timezone": "US/Central",
		"value_day_text": "$6.50 every Tuesday",
		"unlimited_tier": "1"
	},
	{
		"name": "Regal Mission Marketplace",
		"path_name": "regal-mission-marketplace-1470",
		"theatre_code": "1470",
		"address": "431 College Boulevard",
		"city": "Oceanside",
		"state": "CA",
		"postal_code": "92057",
		"latitude": 33.24514,
		"longitude": -117.29396,
		"phone_number": "(844) 462-7342",
		"pwp_availability": true,
		"iana_timezone": "US/Pacific",
		"value_day_text": "$6.00 every Tuesday",
		"unlimited_tier": "1"
	},
	{
		"name": "Regal The Loop",
		"path_name": "regal-the-loop-0687",
		"theatre_code": "0687",
		"address": "3232 N. John Young Parkway",
		"city": "Kissimmee",
		"state": "FL",
		"postal_code": "34741",
		"latitude": 28.3438,
		"longitude": -81.4246,
		"phone_number": "(844) 462-7342",
		"pwp_availability": true,
		"iana_timezone": "US/Eastern",
		"value_day_text": "$6.00 every Tuesday",
		"unlimited_tier": "2"
	},
	{
		"name": "Regal UA Galaxy - Indianapolis",
		"path_name": "regal-ua-galaxy-indianapolis-1299",
		"theatre_code": "1299",
		"address": "8105 E. 96Th Street",
		"city": "Indianapolis",
		"state": "IN",
		"postal_code": "46256",
		"latitude": 39.925,
		"longitude": -86.0261,
		"phone_number": "(844) 462-7342",
		"pwp_availability": true,
		"iana_timezone": "US/Eastern",
		"value_day_text": "$6.50 every Tuesday",
		"unlimited_tier": "1"
	},
	{
		"name": "Regal Stonestown Galleria",
		"path_name": "regal-stonestown-galleria-1464",
		"theatre_code": "1464",
		"address": "3251 20th Avenue",
		"city": "San Francisco",
		"state": "CA",
		"postal_code": "94132",
		"latitude": 37.72817,
		"longitude": -122.47755,
		"phone_number": "(844) 462-7342",
		"pwp_availability": true,
		"iana_timezone": "US/Pacific",
		"value_day_text": "$7.50 every Tuesday",
		"unlimited_tier": "3"
	},
	{
		"name": "Regal Winrock",
		"path_name": "regal-winrock-1992",
		"theatre_code": "1992",
		"address": "2100 Louisina Blvd NE, Bld 400",
		"city": "Albuquerque",
		"state": "NM",
		"postal_code": "87110",
		"latitude": 35.0977,
		"longitude": -106.5665,
		"phone_number": "(844) 462-7342",
		"pwp_availability": true,
		"iana_timezone": "US/Mountain",
		"value_day_text": "$6.25 every Tuesday",
		"unlimited_tier": "1"
	},
	{
		"name": "Regal Pointe Orlando",
		"path_name": "regal-pointe-orlando-1938",
		"theatre_code": "1938",
		"address": "9101 International Dr, St 2100",
		"city": "Orlando",
		"state": "FL",
		"postal_code": "32819",
		"latitude": 28.4313,
		"longitude": -81.4717,
		"phone_number": "(844) 462-7342",
		"pwp_availability": true,
		"iana_timezone": "US/Eastern",
		"value_day_text": "$6.00 every Tuesday",
		"unlimited_tier": "2"
	},
	{
		"name": "Regal West Tower",
		"path_name": "regal-west-tower-cinemas-1226",
		"theatre_code": "1226",
		"address": "8998 West Broad Street",
		"city": "Richmond",
		"state": "VA",
		"postal_code": "23294",
		"latitude": 37.6345,
		"longitude": -77.546,
		"phone_number": "(844) 462-7342",
		"pwp_availability": false,
		"iana_timezone": "US/Eastern",
		"value_day_text": "$6.50 every Tuesday",
		"unlimited_tier": "2"
	},
	{
		"name": "Regal UA Oxford Valley",
		"path_name": "regal-ua-oxford-valley-1269",
		"theatre_code": "1269",
		"address": "403 Middletown Blvd",
		"city": "Langhorne",
		"state": "PA",
		"postal_code": "19047",
		"latitude": 40.186,
		"longitude": -74.8779,
		"phone_number": "(844) 462-7342",
		"pwp_availability": false,
		"iana_timezone": "US/Eastern",
		"value_day_text": "$5.00 every Tuesday",
		"unlimited_tier": "2"
	},
	{
		"name": "Regal Solomon Pond",
		"path_name": "regal-solomon-pond-1721",
		"theatre_code": "1721",
		"address": "591 Donald J Lynch Blvd",
		"city": "Marlborough",
		"state": "MA",
		"postal_code": "01752",
		"latitude": 42.353,
		"longitude": -71.6145,
		"phone_number": "(844) 462-7342",
		"pwp_availability": true,
		"iana_timezone": "US/Eastern",
		"value_day_text": "$6.50 every Tuesday",
		"unlimited_tier": "3"
	},
	{
		"name": "Regal Thornton Place",
		"path_name": "regal-thornton-place-1937",
		"theatre_code": "1937",
		"address": "316 NE Thornton Place",
		"city": "Seattle",
		"state": "WA",
		"postal_code": "98125",
		"latitude": 47.7031,
		"longitude": -122.3256,
		"phone_number": "(844) 462-7342",
		"pwp_availability": true,
		"iana_timezone": "US/Pacific",
		"value_day_text": "$7.00 every Tuesday",
		"unlimited_tier": "2"
	},
	{
		"name": "Regal Heartland",
		"path_name": "regal-heartland-1643",
		"theatre_code": "1643",
		"address": "300 Early Blvd",
		"city": "Early",
		"state": "TX",
		"postal_code": "76801",
		"latitude": 31.7343,
		"longitude": -98.9648,
		"phone_number": "(844) 462-7342",
		"pwp_availability": true,
		"iana_timezone": "US/Central",
		"value_day_text": "$5.50 every Tuesday",
		"unlimited_tier": "1"
	},
	{
		"name": "Regal Treasure Coast Mall",
		"path_name": "regal-treasure-coast-mall-0731",
		"theatre_code": "0731",
		"address": "3290 North West Federal Highwy",
		"city": "Jensen Beach",
		"state": "FL",
		"postal_code": "34957",
		"latitude": 27.2434,
		"longitude": -80.2687,
		"phone_number": "(844) 462-7342",
		"pwp_availability": true,
		"iana_timezone": "US/Eastern",
		"value_day_text": "$6.50 every Tuesday",
		"unlimited_tier": "1"
	},
	{
		"name": "Regal River Point",
		"path_name": "regal-river-point-1943",
		"theatre_code": "1943",
		"address": "3565 South Platte River Drive",
		"city": "Sheridan",
		"state": "CO",
		"postal_code": "80110",
		"latitude": 39.6529,
		"longitude": -105.0084,
		"phone_number": "(844) 462-7342",
		"pwp_availability": true,
		"iana_timezone": "US/Mountain",
		"value_day_text": "$7.00 every Tuesday",
		"unlimited_tier": "2"
	},
	{
		"name": "Regal Strawbridge Marketplace",
		"path_name": "regal-strawbridge-marketplace-0235",
		"theatre_code": "0235",
		"address": "2133 General Booth Blvd.",
		"city": "Virginia Beach",
		"state": "VA",
		"postal_code": "23454",
		"latitude": 36.7642,
		"longitude": -76.0156,
		"phone_number": "(844) 462-7342",
		"pwp_availability": true,
		"iana_timezone": "US/Eastern",
		"value_day_text": "$6.00 every Tuesday",
		"unlimited_tier": "2"
	},
	{
		"name": "Regal Issaquah Highlands",
		"path_name": "regal-issaquah-highlands-1942",
		"theatre_code": "1942",
		"address": "940 NE Park Drive",
		"city": "Issaquah",
		"state": "WA",
		"postal_code": "98029",
		"latitude": 47.5559,
		"longitude": -122.0015,
		"phone_number": "(844) 462-7342",
		"pwp_availability": true,
		"iana_timezone": "US/Pacific",
		"value_day_text": "$7.00 every Tuesday",
		"unlimited_tier": "2"
	},
	{
		"name": "Regal Essex Crossing",
		"path_name": "regal-essex-crossing-1412",
		"theatre_code": "1412",
		"address": "129 Delancey Street",
		"city": "New York",
		"state": "NY",
		"postal_code": "10002",
		"latitude": 40.71823,
		"longitude": -73.98812,
		"phone_number": "(844) 462-7342",
		"pwp_availability": false,
		"iana_timezone": "US/Eastern",
		"value_day_text": "$8.00 every Tuesday",
		"unlimited_tier": "3"
	},
	{
		"name": "Regal Hazleton",
		"path_name": "regal-hazleton-1749",
		"theatre_code": "1749",
		"address": "400 Laurel Mall",
		"city": "Hazleton",
		"state": "PA",
		"postal_code": "18202",
		"latitude": 40.982,
		"longitude": -76.0257,
		"phone_number": "(844) 462-7342",
		"pwp_availability": false,
		"iana_timezone": "US/Eastern",
		"value_day_text": "$7.00 every Tuesday",
		"unlimited_tier": "1"
	},
	{
		"name": "Regal Santa Fe Place",
		"path_name": "regal-santa-fe-place-1465",
		"theatre_code": "1465",
		"address": "4250 Cerrillos Rd",
		"city": "Santa Fe",
		"state": "NM",
		"postal_code": "87507",
		"latitude": 35.63558,
		"longitude": -106.01381,
		"phone_number": "(844) 462-7342",
		"pwp_availability": false,
		"iana_timezone": "US/Mountain",
		"value_day_text": "$7.00 every Tuesday",
		"unlimited_tier": "2"
	},
	{
		"name": "Regal Coldwater Crossing",
		"path_name": "regal-coldwater-crossing-0169",
		"theatre_code": "0169",
		"address": "211 West Washington Center Rd",
		"city": "Fort Wayne",
		"state": "IN",
		"postal_code": "46825",
		"latitude": 41.1325,
		"longitude": -85.1415,
		"phone_number": "(844) 462-7342",
		"pwp_availability": true,
		"iana_timezone": "US/Eastern",
		"value_day_text": "$6.50 every Tuesday",
		"unlimited_tier": "1"
	},
	{
		"name": "Regal Benders Landing",
		"path_name": "regal-benders-landing-screenx-1469",
		"theatre_code": "1469",
		"address": "4495 Riley Fuzzel Road",
		"city": "Spring",
		"state": "TX",
		"postal_code": "77386",
		"latitude": 30.12143,
		"longitude": -95.37575,
		"phone_number": "(844) 462-7342",
		"pwp_availability": true,
		"iana_timezone": "US/Central",
		"value_day_text": "$5.50 every Tuesday",
		"unlimited_tier": "1"
	},
	{
		"name": "Regal Bricktown Charleston",
		"path_name": "regal-bricktown-charleston-1419",
		"theatre_code": "1419",
		"address": "165 Bricktown Way",
		"city": "Staten Island",
		"state": "NY",
		"postal_code": "10309",
		"latitude": 40.5303,
		"longitude": -74.23027,
		"phone_number": "(844) 462-7342",
		"pwp_availability": true,
		"iana_timezone": "US/Eastern",
		"value_day_text": "$7.00 every Tuesday",
		"unlimited_tier": "3"
	},
	{
		"name": "Regal Marysville",
		"path_name": "regal-marysville-0298",
		"theatre_code": "0298",
		"address": "9811 State Avenue",
		"city": "Marysville",
		"state": "WA",
		"postal_code": "98270",
		"latitude": 48.0843,
		"longitude": -122.1713,
		"phone_number": "(844) 462-7342",
		"pwp_availability": true,
		"iana_timezone": "US/Pacific",
		"value_day_text": "$6.50 every Tuesday",
		"unlimited_tier": "2"
	},
	{
		"name": "Regal River Ridge",
		"path_name": "regal-river-ridge-1995",
		"theatre_code": "1995",
		"address": "3411 Candlers Mountain Road",
		"city": "Lynchburg",
		"state": "VA",
		"postal_code": "24502",
		"latitude": 37.3674,
		"longitude": -79.1747,
		"phone_number": "(844) 462-7342",
		"pwp_availability": true,
		"iana_timezone": "US/Eastern",
		"value_day_text": "$6.50 every Tuesday",
		"unlimited_tier": "2"
	},
	{
		"name": "Regal Key West",
		"path_name": "regal-key-west-0412",
		"theatre_code": "0412",
		"address": "3338 N. Roosevelt Blvd.",
		"city": "Key West",
		"state": "FL",
		"postal_code": "33040",
		"latitude": 24.56998,
		"longitude": -81.76304,
		"phone_number": "(844) 462-7342",
		"pwp_availability": false,
		"iana_timezone": "US/Eastern",
		"value_day_text": "$7.00 every Tuesday",
		"unlimited_tier": "3"
	},
	{
		"name": "Regal Arroyo Grande",
		"path_name": "regal-arroyo-grande-1812",
		"theatre_code": "1812",
		"address": "1160 W Branch Street",
		"city": "Arroyo Grande",
		"state": "CA",
		"postal_code": "93420",
		"latitude": 35.1284,
		"longitude": -120.5989,
		"phone_number": "(844) 462-7342",
		"pwp_availability": true,
		"iana_timezone": "US/Pacific",
		"value_day_text": "$6.50 every Tuesday",
		"unlimited_tier": "2"
	},
	{
		"name": "Regal Fishkill",
		"path_name": "regal-fishkill-1739",
		"theatre_code": "1739",
		"address": "18 Westage Business Center",
		"city": "Fishkill",
		"state": "NY",
		"postal_code": "12524",
		"latitude": 41.5393,
		"longitude": -73.9008,
		"phone_number": "(844) 462-7342",
		"pwp_availability": true,
		"iana_timezone": "US/Eastern",
		"value_day_text": "$6.50 every Tuesday",
		"unlimited_tier": "2"
	},
	{
		"name": "Regal Hamburg Pavilion",
		"path_name": "regal-hamburg-pavilion-0728",
		"theatre_code": "0728",
		"address": "1949 Starshoot Road",
		"city": "Lexington",
		"state": "KY",
		"postal_code": "40509",
		"latitude": 38.021,
		"longitude": -84.419,
		"phone_number": "(844) 462-7342",
		"pwp_availability": true,
		"iana_timezone": "US/Eastern",
		"value_day_text": "$6.00 every Tuesday",
		"unlimited_tier": "1"
	},
	{
		"name": "Regal Cinebarre Mountlake",
		"path_name": "regal-cinebarre-mountlake-1958",
		"theatre_code": "1958",
		"address": "24220 Van Ry Blvd",
		"city": "Mountlake Terrace",
		"state": "WA",
		"postal_code": "98043",
		"latitude": 47.7922,
		"longitude": -122.3072,
		"phone_number": "(844) 462-7342",
		"pwp_availability": true,
		"iana_timezone": "US/Pacific",
		"value_day_text": "$7.00 every Tuesday",
		"unlimited_tier": "2"
	},
	{
		"name": "Regal UA Grant Plaza",
		"path_name": "regal-ua-grant-plaza-1290",
		"theatre_code": "1290",
		"address": "1619 Grant Avenue",
		"city": "Philadelphia",
		"state": "PA",
		"postal_code": "19115",
		"latitude": 40.0855,
		"longitude": -75.0388,
		"phone_number": "(844) 462-7342",
		"pwp_availability": true,
		"iana_timezone": "US/Eastern",
		"value_day_text": "$6.50 every Tuesday",
		"unlimited_tier": "2"
	},
	{
		"name": "Regal UA La Canada",
		"path_name": "regal-ua-la-canada-1270",
		"theatre_code": "1270",
		"address": "1919 Verdugo Blvd",
		"city": "La Canada",
		"state": "CA",
		"postal_code": "91011",
		"latitude": 34.2056,
		"longitude": -118.2145,
		"phone_number": "(844) 462-7342",
		"pwp_availability": false,
		"iana_timezone": "US/Pacific",
		"value_day_text": "$7.00 every Tuesday",
		"unlimited_tier": "3"
	},
	{
		"name": "Regal Columbus",
		"path_name": "regal-columbus-0718",
		"theatre_code": "0718",
		"address": "104 Constitution Drive",
		"city": "Virginia Beach",
		"state": "VA",
		"postal_code": "23462",
		"latitude": 36.8401,
		"longitude": -76.1314,
		"phone_number": "(844) 462-7342",
		"pwp_availability": true,
		"iana_timezone": "US/Eastern",
		"value_day_text": "$6.00 every Tuesday",
		"unlimited_tier": "1"
	},
	{
		"name": "Regal Cielo Vista",
		"path_name": "regal-cielo-vista-0765",
		"theatre_code": "0765",
		"address": "2828 Cinema Ridge",
		"city": "San Antonio",
		"state": "TX",
		"postal_code": "78238",
		"latitude": 29.4675,
		"longitude": -98.6154,
		"phone_number": "(844) 462-7342",
		"pwp_availability": true,
		"iana_timezone": "US/Central",
		"value_day_text": "$5.00 every Tuesday",
		"unlimited_tier": "1"
	},
	{
		"name": "Regal Vancouver Plaza",
		"path_name": "regal-vancouver-plaza-0843",
		"theatre_code": "0843",
		"address": "7800  N.E. Fourth Plain",
		"city": "Vancouver",
		"state": "WA",
		"postal_code": "98662",
		"latitude": 45.6488,
		"longitude": -122.5956,
		"phone_number": "(844) 462-7342",
		"pwp_availability": true,
		"iana_timezone": "US/Pacific",
		"value_day_text": "$5.00 every Tuesday",
		"unlimited_tier": "2"
	},
	{
		"name": "Regal Promenade",
		"path_name": "regal-promenade-0748",
		"theatre_code": "0748",
		"address": "550 Deep Valley Dr, Suite 336",
		"city": "Rolling Hills Est",
		"state": "CA",
		"postal_code": "90274",
		"latitude": 33.7709,
		"longitude": -118.3717,
		"phone_number": "(844) 462-7342",
		"pwp_availability": false,
		"iana_timezone": "US/Pacific",
		"value_day_text": "$6.00 every Tuesday",
		"unlimited_tier": "3"
	},
	{
		"name": "Regal Cobblestone Square",
		"path_name": "regal-cobblestone-square-0755",
		"theatre_code": "0755",
		"address": "5500 Cobblestone Road",
		"city": "Elyria",
		"state": "OH",
		"postal_code": "44035",
		"latitude": 41.4191,
		"longitude": -82.0827,
		"phone_number": "(844) 462-7342",
		"pwp_availability": true,
		"iana_timezone": "US/Eastern",
		"value_day_text": "$5.50 every Tuesday",
		"unlimited_tier": "1"
	},
	{
		"name": "Regal Tangram",
		"path_name": "regal-tangram-4dx-1472",
		"theatre_code": "1472",
		"address": "133-36 37th Avenue",
		"city": "Flushing",
		"state": "NY",
		"postal_code": "11354",
		"latitude": 40.76047,
		"longitude": -73.83369,
		"phone_number": "(844) 462-7342",
		"pwp_availability": false,
		"iana_timezone": "US/Eastern",
		"value_day_text": "$7.00 every Tuesday",
		"unlimited_tier": "3"
	},
	{
		"name": "Regal Sunset Station",
		"path_name": "regal-sunset-station-0838",
		"theatre_code": "0838",
		"address": "1301-A W Sunset Road",
		"city": "Henderson",
		"state": "NV",
		"postal_code": "89014",
		"latitude": 36.0636,
		"longitude": -115.0426,
		"phone_number": "(844) 462-7342",
		"pwp_availability": true,
		"iana_timezone": "US/Pacific",
		"value_day_text": "$6.50 every Tuesday",
		"unlimited_tier": "2"
	},
	{
		"name": "Regal Oceanside",
		"path_name": "regal-oceanside-0708",
		"theatre_code": "0708",
		"address": "401 Mission Ave.",
		"city": "Oceanside",
		"state": "CA",
		"postal_code": "92054",
		"latitude": 33.195,
		"longitude": -117.3798,
		"phone_number": "(844) 462-7342",
		"pwp_availability": true,
		"iana_timezone": "US/Pacific",
		"value_day_text": "$6.00 every Tuesday",
		"unlimited_tier": "3"
	},
	{
		"name": "Regal Lloyd Center",
		"path_name": "regal-lloyd-center-0807",
		"theatre_code": "0807",
		"address": "1510 NE Multnomah Street",
		"city": "Portland",
		"state": "OR",
		"postal_code": "97232",
		"latitude": 45.5309,
		"longitude": -122.6512,
		"phone_number": "(844) 462-7342",
		"pwp_availability": false,
		"iana_timezone": "US/Pacific",
		"value_day_text": "$6.00 every Tuesday",
		"unlimited_tier": "2"
	},
	{
		"name": "Regal Huebner Oaks",
		"path_name": "regal-huebner-oaks-0581",
		"theatre_code": "0581",
		"address": "11075 W Interstate 10  Ste 1H",
		"city": "San Antonio",
		"state": "TX",
		"postal_code": "78230",
		"latitude": 29.5487,
		"longitude": -98.5849,
		"phone_number": "(844) 462-7342",
		"pwp_availability": true,
		"iana_timezone": "US/Central",
		"value_day_text": "$5.00 every Tuesday",
		"unlimited_tier": "1"
	},
	{
		"name": "Regal Cypress Creek Station",
		"path_name": "regal-cypress-creek-station-0529",
		"theatre_code": "0529",
		"address": "6415 N. Andrews Avenue",
		"city": "Ft Lauderdale",
		"state": "FL",
		"postal_code": "33309",
		"latitude": 26.2055,
		"longitude": -80.1473,
		"phone_number": "(844) 462-7342",
		"pwp_availability": true,
		"iana_timezone": "US/Eastern",
		"value_day_text": "$6.00 every Tuesday",
		"unlimited_tier": "2"
	},
	{
		"name": "Regal Hollywood - Greenville",
		"path_name": "regal-hollywood-greenville-0488",
		"theatre_code": "0488",
		"address": "1029 Woodruff Road",
		"city": "Greenville",
		"state": "SC",
		"postal_code": "29607",
		"latitude": 34.8336,
		"longitude": -82.3049,
		"phone_number": "(844) 462-7342",
		"pwp_availability": true,
		"iana_timezone": "US/Eastern",
		"value_day_text": "$6.50 every Tuesday",
		"unlimited_tier": "2"
	},
	{
		"name": "Regal McCain Mall",
		"path_name": "regal-mccain-mall-0541",
		"theatre_code": "0541",
		"address": "3929 McCain Boulevard",
		"city": "North Little Rock",
		"state": "AR",
		"postal_code": "72116",
		"latitude": 34.793,
		"longitude": -92.2267,
		"phone_number": "(844) 462-7342",
		"pwp_availability": true,
		"iana_timezone": "US/Central",
		"value_day_text": "$5.50 every Tuesday",
		"unlimited_tier": "1"
	},
	{
		"name": "Regal Three Rivers Mall",
		"path_name": "regal-three-rivers-mall-0599",
		"theatre_code": "0599",
		"address": "341 Three Rivers Drive",
		"city": "Kelso",
		"state": "WA",
		"postal_code": "98626",
		"latitude": 46.1386,
		"longitude": -122.9001,
		"phone_number": "(844) 462-7342",
		"pwp_availability": true,
		"iana_timezone": "US/Pacific",
		"value_day_text": "$5.50 every Tuesday",
		"unlimited_tier": "2"
	},
	{
		"name": "Regal Eastview Mall",
		"path_name": "regal-eastview-mall-0501",
		"theatre_code": "0501",
		"address": "70 Eastview Mall Drive",
		"city": "Victor",
		"state": "NY",
		"postal_code": "14564",
		"latitude": 43.0296,
		"longitude": -77.4395,
		"phone_number": "(844) 462-7342",
		"pwp_availability": true,
		"iana_timezone": "US/Eastern",
		"value_day_text": "$6.50 every Tuesday",
		"unlimited_tier": "2"
	},
	{
		"name": "Regal Naples",
		"path_name": "regal-naples-0465",
		"theatre_code": "0465",
		"address": "6006 Hollywood Drive",
		"city": "Naples",
		"state": "FL",
		"postal_code": "34109",
		"latitude": 26.2201,
		"longitude": -81.7713,
		"phone_number": "(844) 462-7342",
		"pwp_availability": true,
		"iana_timezone": "US/Eastern",
		"value_day_text": "$7.00 every Tuesday",
		"unlimited_tier": "3"
	},
	{
		"name": "Regal Goldstream",
		"path_name": "regal-goldstream-0601",
		"theatre_code": "0601",
		"address": "1855 Airport Way",
		"city": "Fairbanks",
		"state": "AK",
		"postal_code": "99701",
		"latitude": 64.8369,
		"longitude": -147.7578,
		"phone_number": "(844) 462-7342",
		"pwp_availability": true,
		"iana_timezone": "US/Alaska",
		"value_day_text": "$6.50 every Tuesday",
		"unlimited_tier": "3"
	},
	{
		"name": "Regal Sawgrass",
		"path_name": "regal-sawgrass-0442",
		"theatre_code": "0442",
		"address": "2600  Northwest 136th Avenue",
		"city": "Sunrise",
		"state": "FL",
		"postal_code": "33323",
		"latitude": 26.1569,
		"longitude": -80.3214,
		"phone_number": "(844) 462-7342",
		"pwp_availability": true,
		"iana_timezone": "US/Eastern",
		"value_day_text": "$5.00 every Tuesday",
		"unlimited_tier": "1"
	},
	{
		"name": "Regal Lone Star",
		"path_name": "regal-lone-star-1441",
		"theatre_code": "1441",
		"address": "24720 Tomball Parkway",
		"city": "Tomball",
		"state": "TX",
		"postal_code": "77375",
		"latitude": 30.0415,
		"longitude": -95.6052,
		"phone_number": "(844) 462-7342",
		"pwp_availability": true,
		"iana_timezone": "US/Central",
		"value_day_text": "$5.50 every Tuesday",
		"unlimited_tier": "1"
	},
	{
		"name": "Regal Carrollton",
		"path_name": "regal-carrollton-1420",
		"theatre_code": "1420",
		"address": "1135 Bankhead Highway",
		"city": "Carrollton",
		"state": "GA",
		"postal_code": "30116",
		"latitude": 33.5933,
		"longitude": -85.038,
		"phone_number": "(844) 462-7342",
		"pwp_availability": true,
		"iana_timezone": "US/Eastern",
		"value_day_text": "$6.50 every Tuesday",
		"unlimited_tier": "1"
	},
	{
		"name": "Regal Largo Mall",
		"path_name": "regal-largo-mall-0446",
		"theatre_code": "0446",
		"address": "10500 Ulmerton Road East, #500",
		"city": "Largo",
		"state": "FL",
		"postal_code": "33771",
		"latitude": 27.8946,
		"longitude": -82.7845,
		"phone_number": "(844) 462-7342",
		"pwp_availability": true,
		"iana_timezone": "US/Eastern",
		"value_day_text": "$5.00 every Tuesday",
		"unlimited_tier": "1"
	},
	{
		"name": "Regal Warren West",
		"path_name": "regal-warren-west-1443",
		"theatre_code": "1443",
		"address": "9150 W 21st St.",
		"city": "Wichita",
		"state": "KS",
		"postal_code": "67205",
		"latitude": 37.7242,
		"longitude": -97.4478,
		"phone_number": "(844) 462-7342",
		"pwp_availability": true,
		"iana_timezone": "US/Central",
		"value_day_text": "$5.00 every Tuesday",
		"unlimited_tier": "1"
	},
	{
		"name": "Regal Dawson",
		"path_name": "regal-dawson-1422",
		"theatre_code": "1422",
		"address": "189 North 400 Center Lane",
		"city": "Dawsonville",
		"state": "GA",
		"postal_code": "30534",
		"latitude": 34.3689,
		"longitude": -84.0356,
		"phone_number": "(844) 462-7342",
		"pwp_availability": true,
		"iana_timezone": "US/Eastern",
		"value_day_text": "$6.00 every Tuesday",
		"unlimited_tier": "1"
	},
	{
		"name": "Regal Warren East",
		"path_name": "regal-warren-east-1444",
		"theatre_code": "1444",
		"address": "11611 E. 13th St.",
		"city": "Wichita",
		"state": "KS",
		"postal_code": "67206",
		"latitude": 37.7057,
		"longitude": -97.2026,
		"phone_number": "(844) 462-7342",
		"pwp_availability": true,
		"iana_timezone": "US/Central",
		"value_day_text": "$5.00 every Tuesday",
		"unlimited_tier": "1"
	},
	{
		"name": "Regal Atlantic Station",
		"path_name": "regal-atlantic-station-1346",
		"theatre_code": "1346",
		"address": "261 19th Street NW, Suite 1250",
		"city": "Atlanta",
		"state": "GA",
		"postal_code": "30363",
		"latitude": 33.7938,
		"longitude": -84.396,
		"phone_number": "(844) 462-7342",
		"pwp_availability": true,
		"iana_timezone": "US/Eastern",
		"value_day_text": "$6.50 every Tuesday",
		"unlimited_tier": "2"
	},
	{
		"name": "Regal Janss Marketplace",
		"path_name": "regal-janss-marketplace-1418",
		"theatre_code": "1418",
		"address": "255 North Moorpark Road",
		"city": "Thousand Oaks",
		"state": "CA",
		"postal_code": "91360",
		"latitude": 34.1828,
		"longitude": -118.8792,
		"phone_number": "(844) 462-7342",
		"pwp_availability": false,
		"iana_timezone": "US/Pacific",
		"value_day_text": "$6.50 every Tuesday",
		"unlimited_tier": "2"
	},
	{
		"name": "Regal Cherokee",
		"path_name": "regal-cherokee-1423",
		"theatre_code": "1423",
		"address": "355 Cinema View",
		"city": "Woodstock",
		"state": "GA",
		"postal_code": "30189",
		"latitude": 34.1076,
		"longitude": -84.543,
		"phone_number": "(844) 462-7342",
		"pwp_availability": true,
		"iana_timezone": "US/Eastern",
		"value_day_text": "$6.00 every Tuesday",
		"unlimited_tier": "1"
	},
	{
		"name": "Regal Independence Plaza",
		"path_name": "regal-independence-plaza-1417",
		"theatre_code": "1417",
		"address": "2465 South Broad Street",
		"city": "Hamilton",
		"state": "NJ",
		"postal_code": "08610",
		"latitude": 40.192,
		"longitude": -74.7218,
		"phone_number": "(844) 462-7342",
		"pwp_availability": true,
		"iana_timezone": "US/Eastern",
		"value_day_text": "$7.00 every Tuesday",
		"unlimited_tier": "1"
	},
	{
		"name": "Regal Davis Holiday",
		"path_name": "regal-davis-holiday-1814",
		"theatre_code": "1814",
		"address": "101 F Street",
		"city": "Davis",
		"state": "CA",
		"postal_code": "95616",
		"latitude": 38.5424,
		"longitude": -121.74,
		"phone_number": "(844) 462-7342",
		"pwp_availability": true,
		"iana_timezone": "US/Pacific",
		"value_day_text": "$6.00 every Tuesday",
		"unlimited_tier": "2"
	},
	{
		"name": "Regal Delta Shores",
		"path_name": "regal-delta-shores-1413",
		"theatre_code": "1413",
		"address": "8136 Delta Shores Circle",
		"city": "Sacramento",
		"state": "CA",
		"postal_code": "95832",
		"latitude": 38.4652,
		"longitude": -121.4939,
		"phone_number": "(844) 462-7342",
		"pwp_availability": true,
		"iana_timezone": "US/Pacific",
		"value_day_text": "$6.50 every Tuesday",
		"unlimited_tier": "2"
	},
	{
		"name": "Regal Brandywine Town Center",
		"path_name": "regal-brandywine-town-center-0509",
		"theatre_code": "0509",
		"address": "3300 Brandywine Parkway",
		"city": "Wilmington",
		"state": "DE",
		"postal_code": "19803",
		"latitude": 39.8325,
		"longitude": -75.5361,
		"phone_number": "(844) 462-7342",
		"pwp_availability": true,
		"iana_timezone": "US/Eastern",
		"value_day_text": "$7.00 every Tuesday",
		"unlimited_tier": "2"
	},
	{
		"name": "Regal Simpsonville",
		"path_name": "regal-simpsonville-1517",
		"theatre_code": "1517",
		"address": "780 South Street",
		"city": "Simpsonville",
		"state": "SC",
		"postal_code": "29681",
		"latitude": 34.7213,
		"longitude": -82.2551,
		"phone_number": "(844) 462-7342",
		"pwp_availability": true,
		"iana_timezone": "US/Eastern",
		"value_day_text": "$6.50 every Tuesday",
		"unlimited_tier": "2"
	},
	{
		"name": "Regal Dickson City",
		"path_name": "regal-dickson-city-1515",
		"theatre_code": "1515",
		"address": "3909 Commerce Boulevard",
		"city": "Dickson City",
		"state": "PA",
		"postal_code": "18519",
		"latitude": 41.4599,
		"longitude": -75.6464,
		"phone_number": "(844) 462-7342",
		"pwp_availability": true,
		"iana_timezone": "US/Eastern",
		"value_day_text": "$6.50 every Tuesday",
		"unlimited_tier": "1"
	},
	{
		"name": "Regal Sandhill",
		"path_name": "regal-sandhill-1855",
		"theatre_code": "1855",
		"address": "450 Town Center Place",
		"city": "Columbia",
		"state": "SC",
		"postal_code": "29229",
		"latitude": 34.1118,
		"longitude": -80.8577,
		"phone_number": "(844) 462-7342",
		"pwp_availability": true,
		"iana_timezone": "US/Eastern",
		"value_day_text": "$6.50 every Tuesday",
		"unlimited_tier": "1"
	},
	{
		"name": "Regal Edwards Temecula",
		"path_name": "regal-edwards-temecula-1045",
		"theatre_code": "1045",
		"address": "40750 Winchester Road",
		"city": "Temecula",
		"state": "CA",
		"postal_code": "92591",
		"latitude": 33.5251,
		"longitude": -117.1521,
		"phone_number": "(844) 462-7342",
		"pwp_availability": true,
		"iana_timezone": "US/Pacific",
		"value_day_text": "$6.00 every Tuesday",
		"unlimited_tier": "2"
	},
	{
		"name": "Regal UA Westbrook",
		"path_name": "regal-ua-westbrook-1204",
		"theatre_code": "1204",
		"address": "454 Brookway Blvd.",
		"city": "Brookhaven",
		"state": "MS",
		"postal_code": "39601",
		"latitude": 31.5801,
		"longitude": -90.4496,
		"phone_number": "(844) 462-7342",
		"pwp_availability": false,
		"iana_timezone": "US/Central",
		"value_day_text": "$5.50 every Tuesday",
		"unlimited_tier": "1"
	},
	{
		"name": "Regal Edwards Greenway Grand Palace",
		"path_name": "regal-edwards-greenway-grand-palace-1051",
		"theatre_code": "1051",
		"address": "3839 Weslayan Street",
		"city": "Houston",
		"state": "TX",
		"postal_code": "77027",
		"latitude": 29.73112,
		"longitude": -95.44134,
		"phone_number": "(844) 462-7342",
		"pwp_availability": true,
		"iana_timezone": "US/Central",
		"value_day_text": "$6.00 every Tuesday",
		"unlimited_tier": "2"
	},
	{
		"name": "Regal Auburn - California",
		"path_name": "regal-auburn-california-1823",
		"theatre_code": "1823",
		"address": "500 Nevada Street",
		"city": "Auburn",
		"state": "CA",
		"postal_code": "95603",
		"latitude": 38.9134,
		"longitude": -121.079,
		"phone_number": "(844) 462-7342",
		"pwp_availability": true,
		"iana_timezone": "US/Pacific",
		"value_day_text": "$6.00 every Tuesday",
		"unlimited_tier": "2"
	},
	{
		"name": "Regal UA Clovis",
		"path_name": "regal-ua-clovis-movies-1185",
		"theatre_code": "1185",
		"address": "2301 Villa Ave",
		"city": "Clovis",
		"state": "CA",
		"postal_code": "93612",
		"latitude": 36.8059,
		"longitude": -119.7121,
		"phone_number": "(844) 462-7342",
		"pwp_availability": true,
		"iana_timezone": "US/Pacific",
		"value_day_text": "$5.50 every Tuesday",
		"unlimited_tier": "1"
	},
	{
		"name": "Regal Pearl Highlands",
		"path_name": "regal-pearl-highlands-1827",
		"theatre_code": "1827",
		"address": "1000 Kamehameha Hwy #231",
		"city": "Pearl City",
		"state": "HI",
		"postal_code": "96782",
		"latitude": 21.398,
		"longitude": -157.97591,
		"phone_number": "(844) 462-7342",
		"pwp_availability": true,
		"iana_timezone": "US/Hawaii",
		"value_day_text": "$6.50 every Tuesday",
		"unlimited_tier": "2"
	},
	{
		"name": "Regal North Hills",
		"path_name": "regal-north-hills-1846",
		"theatre_code": "1846",
		"address": "4150 Main at North Hills St",
		"city": "Raleigh",
		"state": "NC",
		"postal_code": "27609",
		"latitude": 35.834,
		"longitude": -78.638,
		"phone_number": "(844) 462-7342",
		"pwp_availability": true,
		"iana_timezone": "US/Eastern",
		"value_day_text": "$6.50 every Tuesday",
		"unlimited_tier": "1"
	},
	{
		"name": "Regal Edwards Canyon Country",
		"path_name": "regal-edwards-canyon-country-1047",
		"theatre_code": "1047",
		"address": "18800 Soledad Canyon Road",
		"city": "Santa Clarita",
		"state": "CA",
		"postal_code": "91351",
		"latitude": 34.4156,
		"longitude": -118.4647,
		"phone_number": "(844) 462-7342",
		"pwp_availability": false,
		"iana_timezone": "US/Pacific",
		"value_day_text": "$7.00 every Tuesday",
		"unlimited_tier": "3"
	},
	{
		"name": "Regal Edwards Ontario Palace",
		"path_name": "regal-edwards-ontario-palace-1026",
		"theatre_code": "1026",
		"address": "4900 East 4th Street",
		"city": "Ontario",
		"state": "CA",
		"postal_code": "91764",
		"latitude": 34.0767,
		"longitude": -117.5486,
		"phone_number": "(844) 462-7342",
		"pwp_availability": true,
		"iana_timezone": "US/Pacific",
		"value_day_text": "$6.00 every Tuesday",
		"unlimited_tier": "2"
	},
	{
		"name": "Regal Edwards Kaleidoscope",
		"path_name": "regal-edwards-kaleidoscope-1035",
		"theatre_code": "1035",
		"address": "27741 Crown Valley Pkwy #301",
		"city": "Mission Viejo",
		"state": "CA",
		"postal_code": "92691",
		"latitude": 33.5638,
		"longitude": -117.6605,
		"phone_number": "(844) 462-7342",
		"pwp_availability": true,
		"iana_timezone": "US/Pacific",
		"value_day_text": "$6.50 every Tuesday",
		"unlimited_tier": "3"
	},
	{
		"name": "Regal Windward",
		"path_name": "regal-windward-1829",
		"theatre_code": "1829",
		"address": "46-056 Kamehameha Hwy SPC N6",
		"city": "Kaneohe",
		"state": "HI",
		"postal_code": "96744",
		"latitude": 21.4244,
		"longitude": -157.8064,
		"phone_number": "(844) 462-7342",
		"pwp_availability": true,
		"iana_timezone": "US/Hawaii",
		"value_day_text": "$6.50 every Tuesday",
		"unlimited_tier": "2"
	},
	{
		"name": "Regal Edwards Alhambra Renaissance",
		"path_name": "regal-edwards-alhambra-renaissance-1053",
		"theatre_code": "1053",
		"address": "1 East Main Street",
		"city": "Alhambra",
		"state": "CA",
		"postal_code": "91801",
		"latitude": 34.0958,
		"longitude": -118.1265,
		"phone_number": "(844) 462-7342",
		"pwp_availability": false,
		"iana_timezone": "US/Pacific",
		"value_day_text": "$7.00 every Tuesday",
		"unlimited_tier": "3"
	},
	{
		"name": "Regal Edwards Nampa Spectrum",
		"path_name": "regal-edwards-nampa-spectrum-1039",
		"theatre_code": "1039",
		"address": "2001 North Cassia Street",
		"city": "Nampa",
		"state": "ID",
		"postal_code": "83651",
		"latitude": 43.601,
		"longitude": -116.602,
		"phone_number": "(844) 462-7342",
		"pwp_availability": true,
		"iana_timezone": "US/Mountain",
		"value_day_text": "$5.50 every Tuesday",
		"unlimited_tier": "1"
	},
	{
		"name": "Regal Edwards Market Place",
		"path_name": "regal-edwards-market-place-1048",
		"theatre_code": "1048",
		"address": "13782 Jamboree Road",
		"city": "Irvine",
		"state": "CA",
		"postal_code": "92602",
		"latitude": 33.7233,
		"longitude": -117.7902,
		"phone_number": "(844) 462-7342",
		"pwp_availability": true,
		"iana_timezone": "US/Pacific",
		"value_day_text": "$7.00 every Tuesday",
		"unlimited_tier": "3"
	},
	{
		"name": "Regal Fresno River Park",
		"path_name": "regal-fresno-river-park-1033",
		"theatre_code": "1033",
		"address": "250 Paseo Del Centro",
		"city": "Fresno",
		"state": "CA",
		"postal_code": "93720",
		"latitude": 36.8508,
		"longitude": -119.7898,
		"phone_number": "(844) 462-7342",
		"pwp_availability": true,
		"iana_timezone": "US/Pacific",
		"value_day_text": "$6.50 every Tuesday",
		"unlimited_tier": "2"
	},
	{
		"name": "Regal Edwards South Gate",
		"path_name": "regal-edwards-south-gate-1044",
		"theatre_code": "1044",
		"address": "8630 Garfield Avenue",
		"city": "South Gate",
		"state": "CA",
		"postal_code": "90280",
		"latitude": 33.953,
		"longitude": -118.163,
		"phone_number": "(844) 462-7342",
		"pwp_availability": false,
		"iana_timezone": "US/Pacific",
		"value_day_text": "$6.50 every Sunday & Tuesday",
		"unlimited_tier": "2"
	},
	{
		"name": "Regal Edwards Ontario Mountain Village",
		"path_name": "regal-edwards-ontario-mountain-village-1037",
		"theatre_code": "1037",
		"address": "1575 North Mountain Avenue",
		"city": "Ontario",
		"state": "CA",
		"postal_code": "91762",
		"latitude": 34.0862,
		"longitude": -117.6705,
		"phone_number": "(844) 462-7342",
		"pwp_availability": true,
		"iana_timezone": "US/Pacific",
		"value_day_text": "$6.00 every Tuesday",
		"unlimited_tier": "2"
	},
	{
		"name": "Regal UA Midway",
		"path_name": "regal-ua-midway-1143",
		"theatre_code": "1143",
		"address": "108-22 Queens Blvd",
		"city": "Forest Hills",
		"state": "NY",
		"postal_code": "11375",
		"latitude": 40.7209,
		"longitude": -73.8442,
		"phone_number": "(844) 462-7342",
		"pwp_availability": false,
		"iana_timezone": "US/Eastern",
		"value_day_text": "$7.50 every Tuesday",
		"unlimited_tier": "3"
	},
	{
		"name": "Regal Augusta Exchange",
		"path_name": "regal-augusta-exchange-0724",
		"theatre_code": "0724",
		"address": "1144 Agerton Lane",
		"city": "Augusta",
		"state": "GA",
		"postal_code": "30909",
		"latitude": 33.4884,
		"longitude": -82.0781,
		"phone_number": "(844) 462-7342",
		"pwp_availability": true,
		"iana_timezone": "US/Eastern",
		"value_day_text": "$6.00 every Tuesday",
		"unlimited_tier": "1"
	},
	{
		"name": "Regal Turlock",
		"path_name": "regal-turlock-1819",
		"theatre_code": "1819",
		"address": "2323 W Main",
		"city": "Turlock",
		"state": "CA",
		"postal_code": "95380",
		"latitude": 37.4941,
		"longitude": -120.8751,
		"phone_number": "(844) 462-7342",
		"pwp_availability": true,
		"iana_timezone": "US/Pacific",
		"value_day_text": "$6.50 every Tuesday",
		"unlimited_tier": "2"
	},
	{
		"name": "Regal Fox",
		"path_name": "regal-fox-1869",
		"theatre_code": "1869",
		"address": "22875 Brambleton Plaza",
		"city": "Ashburn",
		"state": "VA",
		"postal_code": "20148",
		"latitude": 38.9872,
		"longitude": -77.5293,
		"phone_number": "(844) 462-7342",
		"pwp_availability": true,
		"iana_timezone": "US/Eastern",
		"value_day_text": "$7.00 every Tuesday",
		"unlimited_tier": "2"
	},
	{
		"name": "Regal Northstar",
		"path_name": "regal-northstar-1622",
		"theatre_code": "1622",
		"address": "201  N Northpark Lane",
		"city": "Joplin",
		"state": "MO",
		"postal_code": "64801",
		"latitude": 37.098,
		"longitude": -94.4684,
		"phone_number": "(844) 462-7342",
		"pwp_availability": true,
		"iana_timezone": "US/Central",
		"value_day_text": "$6.00 every Tuesday",
		"unlimited_tier": "1"
	},
	{
		"name": "Regal Modesto",
		"path_name": "regal-modesto-1818",
		"theatre_code": "1818",
		"address": "3969 McHenry Blvd",
		"city": "Modesto",
		"state": "CA",
		"postal_code": "95356",
		"latitude": 37.6959,
		"longitude": -120.9958,
		"phone_number": "(844) 462-7342",
		"pwp_availability": true,
		"iana_timezone": "US/Pacific",
		"value_day_text": "$6.50 every Tuesday",
		"unlimited_tier": "2"
	},
	{
		"name": "Regal Old Mill",
		"path_name": "regal-old-mill-0758",
		"theatre_code": "0758",
		"address": "680 SW Powerhouse Drive",
		"city": "Bend",
		"state": "OR",
		"postal_code": "97702",
		"latitude": 44.0393,
		"longitude": -121.3265,
		"phone_number": "(844) 462-7342",
		"pwp_availability": true,
		"iana_timezone": "US/Pacific",
		"value_day_text": "$6.50 every Tuesday",
		"unlimited_tier": "2"
	},
	{
		"name": "Regal Ukiah",
		"path_name": "regal-ukiah-1813",
		"theatre_code": "1813",
		"address": "612 S State Street",
		"city": "Ukiah",
		"state": "CA",
		"postal_code": "95482",
		"latitude": 39.1466,
		"longitude": -123.2056,
		"phone_number": "(844) 462-7342",
		"pwp_availability": true,
		"iana_timezone": "US/Pacific",
		"value_day_text": "$6.50 every Tuesday",
		"unlimited_tier": "2"
	},
	{
		"name": "Regal Hollywood @ North I-85",
		"path_name": "regal-hollywood-north-i-85-0745",
		"theatre_code": "0745",
		"address": "3265 N.E. Expressway Access",
		"city": "Chamblee",
		"state": "GA",
		"postal_code": "30341",
		"latitude": 33.863,
		"longitude": -84.2887,
		"phone_number": "(844) 462-7342",
		"pwp_availability": true,
		"iana_timezone": "US/Eastern",
		"value_day_text": "$5.00 every Tuesday",
		"unlimited_tier": "2"
	},
	{
		"name": "Regal Albany",
		"path_name": "regal-albany-cinemas-0833",
		"theatre_code": "0833",
		"address": "1350 SE Waverly Drive",
		"city": "Albany",
		"state": "OR",
		"postal_code": "97322",
		"latitude": 44.6295,
		"longitude": -123.0721,
		"phone_number": "(844) 462-7342",
		"pwp_availability": true,
		"iana_timezone": "US/Pacific",
		"value_day_text": "$5.75 every Tuesday",
		"unlimited_tier": "1"
	},
	{
		"name": "Regal Times Square",
		"path_name": "regal-times-square-1929",
		"theatre_code": "1929",
		"address": "247 W. 42nd St.",
		"city": "New York",
		"state": "NY",
		"postal_code": "10036",
		"latitude": 40.7565,
		"longitude": -73.9883,
		"phone_number": "(844) 462-7342",
		"pwp_availability": true,
		"iana_timezone": "US/Eastern",
		"value_day_text": "$8.00 every Tuesday",
		"unlimited_tier": "3"
	},
	{
		"name": "Regal Boulder Station",
		"path_name": "regal-boulder-station-0837",
		"theatre_code": "0837",
		"address": "4111 Boulder Highway",
		"city": "Las Vegas",
		"state": "NV",
		"postal_code": "89121",
		"latitude": 36.1319,
		"longitude": -115.0851,
		"phone_number": "(844) 462-7342",
		"pwp_availability": true,
		"iana_timezone": "US/Pacific",
		"value_day_text": "$5.50 every Tuesday",
		"unlimited_tier": "2"
	},
	{
		"name": "Regal Providence",
		"path_name": "regal-providence-1890",
		"theatre_code": "1890",
		"address": "401 S. Mt Juliet Rd, Suite 490",
		"city": "Mt Juliet",
		"state": "TN",
		"postal_code": "37122",
		"latitude": 36.1652,
		"longitude": -86.5075,
		"phone_number": "(844) 462-7342",
		"pwp_availability": true,
		"iana_timezone": "US/Central",
		"value_day_text": "$6.50 every Tuesday",
		"unlimited_tier": "2"
	},
	{
		"name": "Regal Edwards West Covina",
		"path_name": "regal-edwards-west-covina-1030",
		"theatre_code": "1030",
		"address": "1200 Lakes Drive",
		"city": "West Covina",
		"state": "CA",
		"postal_code": "91790",
		"latitude": 34.0699,
		"longitude": -117.9218,
		"phone_number": "(844) 462-7342",
		"pwp_availability": false,
		"iana_timezone": "US/Pacific",
		"value_day_text": "$5.50 every Tuesday",
		"unlimited_tier": "1"
	},
	{
		"name": "Regal Town Center - Port Charlotte",
		"path_name": "regal-town-center-port-charlotte-0723",
		"theatre_code": "0723",
		"address": "1441 Tamiami Trail, Unit 701",
		"city": "Port Charlotte",
		"state": "FL",
		"postal_code": "33948",
		"latitude": 27.011,
		"longitude": -82.142,
		"phone_number": "(844) 462-7342",
		"pwp_availability": true,
		"iana_timezone": "US/Eastern",
		"value_day_text": "$6.00 every Tuesday",
		"unlimited_tier": "1"
	},
	{
		"name": "Regal Brier Creek",
		"path_name": "regal-brier-creek-1843",
		"theatre_code": "1843",
		"address": "8611 Brier Creek Parkway",
		"city": "Raleigh",
		"state": "NC",
		"postal_code": "27617",
		"latitude": 35.9041,
		"longitude": -78.7837,
		"phone_number": "(844) 462-7342",
		"pwp_availability": true,
		"iana_timezone": "US/Eastern",
		"value_day_text": "$6.50 every Tuesday",
		"unlimited_tier": "1"
	},
	{
		"name": "Regal Fredericksburg",
		"path_name": "regal-fredericksburg-0712",
		"theatre_code": "0712",
		"address": "3301 Plank Road Route 3W",
		"city": "Fredericksburg",
		"state": "VA",
		"postal_code": "22401",
		"latitude": 38.2961,
		"longitude": -77.5168,
		"phone_number": "(844) 462-7342",
		"pwp_availability": true,
		"iana_timezone": "US/Eastern",
		"value_day_text": "$5.00 every Tuesday",
		"unlimited_tier": "2"
	},
	{
		"name": "Regal UA Colorado Mills",
		"path_name": "regal-ua-colorado-mills-1550",
		"theatre_code": "1550",
		"address": "14500 W. Colfax Ave, Suite 600",
		"city": "Lakewood",
		"state": "CO",
		"postal_code": "80401",
		"latitude": 39.73,
		"longitude": -105.16,
		"phone_number": "(844) 462-7342",
		"pwp_availability": true,
		"iana_timezone": "US/Mountain",
		"value_day_text": "$6.00 every Tuesday",
		"unlimited_tier": "2"
	},
	{
		"name": "Regal Noblesville",
		"path_name": "regal-noblesville-1523",
		"theatre_code": "1523",
		"address": "10075 Town & Country Blvd",
		"city": "Noblesville",
		"state": "IN",
		"postal_code": "46060",
		"latitude": 40.0368,
		"longitude": -85.9952,
		"phone_number": "(844) 462-7342",
		"pwp_availability": true,
		"iana_timezone": "US/Eastern",
		"value_day_text": "$6.00 every Tuesday",
		"unlimited_tier": "1"
	},
	{
		"name": "Regal Edwards Fairfield",
		"path_name": "regal-edwards-fairfield-1046",
		"theatre_code": "1046",
		"address": "1549 Gateway Boulevard",
		"city": "Fairfield",
		"state": "CA",
		"postal_code": "94533",
		"latitude": 38.2632,
		"longitude": -122.0551,
		"phone_number": "(844) 462-7342",
		"pwp_availability": true,
		"iana_timezone": "US/Pacific",
		"value_day_text": "$5.50 every Tuesday",
		"unlimited_tier": "2"
	},
	{
		"name": "Regal Edwards Grand Teton",
		"path_name": "regal-edwards-grand-teton-1040",
		"theatre_code": "1040",
		"address": "2707 South 25th East",
		"city": "Ammon",
		"state": "ID",
		"postal_code": "83406",
		"latitude": 43.47512,
		"longitude": -111.98264,
		"phone_number": "(844) 462-7342",
		"pwp_availability": true,
		"iana_timezone": "US/Mountain",
		"value_day_text": "$6.00 every Tuesday",
		"unlimited_tier": "1"
	},
	{
		"name": "Regal Hollywood - Merced",
		"path_name": "regal-hollywood-merced-1607",
		"theatre_code": "1607",
		"address": "403 W. Main",
		"city": "Merced",
		"state": "CA",
		"postal_code": "95340",
		"latitude": 37.301,
		"longitude": -120.4819,
		"phone_number": "(844) 462-7342",
		"pwp_availability": true,
		"iana_timezone": "US/Pacific",
		"value_day_text": "$6.50 every Tuesday",
		"unlimited_tier": "2"
	},
	{
		"name": "Regal UA East Hampton",
		"path_name": "regal-ua-east-hampton-cinema-1138",
		"theatre_code": "1138",
		"address": "30 Main Street",
		"city": "East Hampton",
		"state": "NY",
		"postal_code": "11937",
		"latitude": 40.9637,
		"longitude": -72.1855,
		"phone_number": "(844) 462-7342",
		"pwp_availability": false,
		"iana_timezone": "US/Eastern",
		"value_day_text": "$7.50 every Tuesday",
		"unlimited_tier": "3"
	},
	{
		"name": "Regal UA Falls",
		"path_name": "regal-ua-falls-1149",
		"theatre_code": "1149",
		"address": "9000 S.W. 136Th Street",
		"city": "Miami",
		"state": "FL",
		"postal_code": "33176",
		"latitude": 25.6431,
		"longitude": -80.3393,
		"phone_number": "(844) 462-7342",
		"pwp_availability": true,
		"iana_timezone": "US/Eastern",
		"value_day_text": "$6.00 every Tuesday",
		"unlimited_tier": "2"
	},
	{
		"name": "Regal Natomas Marketplace",
		"path_name": "regal-natomas-marketplace-0774",
		"theatre_code": "0774",
		"address": "3561 Truxel Road",
		"city": "Sacramento",
		"state": "CA",
		"postal_code": "95834",
		"latitude": 38.6347,
		"longitude": -121.5025,
		"phone_number": "(844) 462-7342",
		"pwp_availability": true,
		"iana_timezone": "US/Pacific",
		"value_day_text": "$6.00 every Tuesday",
		"unlimited_tier": "2"
	},
	{
		"name": "Regal Maui Mall",
		"path_name": "regal-maui-mall-megaplex-1614",
		"theatre_code": "1614",
		"address": "70 E. Kaahnumanu Ave Suite A",
		"city": "Kahului",
		"state": "HI",
		"postal_code": "96732",
		"latitude": 20.8822,
		"longitude": -156.47549,
		"phone_number": "(844) 462-7342",
		"pwp_availability": true,
		"iana_timezone": "US/Hawaii",
		"value_day_text": "$6.50 every Tuesday",
		"unlimited_tier": "2"
	},
	{
		"name": "Regal Franklin Square",
		"path_name": "regal-franklin-square-1845",
		"theatre_code": "1845",
		"address": "3778 East Franklin Blvd",
		"city": "Gastonia",
		"state": "NC",
		"postal_code": "28054",
		"latitude": 35.2601,
		"longitude": -81.1103,
		"phone_number": "(844) 462-7342",
		"pwp_availability": true,
		"iana_timezone": "US/Eastern",
		"value_day_text": "$5.50 every Tuesday",
		"unlimited_tier": "1"
	},
	{
		"name": "Regal Movies On TV",
		"path_name": "regal-movies-on-tv-0855",
		"theatre_code": "0855",
		"address": "SW 2929 234th Avenue",
		"city": "Hillsboro",
		"state": "OR",
		"postal_code": "97123",
		"latitude": 45.4987,
		"longitude": -122.9184,
		"phone_number": "(844) 462-7342",
		"pwp_availability": true,
		"iana_timezone": "US/Pacific",
		"value_day_text": "$6.00 every Tuesday",
		"unlimited_tier": "2"
	},
	{
		"name": "Regal Edwards Rancho San Diego",
		"path_name": "regal-edwards-rancho-san-diego-1049",
		"theatre_code": "1049",
		"address": "2951 Jamacha Road",
		"city": "El Cajon",
		"state": "CA",
		"postal_code": "92019",
		"latitude": 32.7398,
		"longitude": -116.9417,
		"phone_number": "(844) 462-7342",
		"pwp_availability": true,
		"iana_timezone": "US/Pacific",
		"value_day_text": "$6.50 every Tuesday",
		"unlimited_tier": "3"
	},
	{
		"name": "Regal Manor",
		"path_name": "regal-manor-0754",
		"theatre_code": "0754",
		"address": "1246 Millersville Pike",
		"city": "Lancaster",
		"state": "PA",
		"postal_code": "17603",
		"latitude": 40.0272,
		"longitude": -76.3266,
		"phone_number": "(844) 462-7342",
		"pwp_availability": true,
		"iana_timezone": "US/Eastern",
		"value_day_text": "$7.00 every Tuesday",
		"unlimited_tier": "2"
	},
	{
		"name": "Regal Sonora",
		"path_name": "regal-sonora-1826",
		"theatre_code": "1826",
		"address": "901 Sanguinetti Road",
		"city": "Sonora",
		"state": "CA",
		"postal_code": "95370",
		"latitude": 37.9736,
		"longitude": -120.3705,
		"phone_number": "(844) 462-7342",
		"pwp_availability": true,
		"iana_timezone": "US/Pacific",
		"value_day_text": "$6.50 every Tuesday",
		"unlimited_tier": "2"
	},
	{
		"name": "Regal Governor's Square",
		"path_name": "regal-governors-square-1857",
		"theatre_code": "1857",
		"address": "1501 Governor's Square Blvd",
		"city": "Tallahassee",
		"state": "FL",
		"postal_code": "32301",
		"latitude": 30.4381,
		"longitude": -84.2578,
		"phone_number": "(844) 462-7342",
		"pwp_availability": true,
		"iana_timezone": "US/Eastern",
		"value_day_text": "$5.00 every Tuesday",
		"unlimited_tier": "1"
	},
	{
		"name": "Regal SouthGlenn",
		"path_name": "regal-southglenn-1610",
		"theatre_code": "1610",
		"address": "6901 S. Vine Street",
		"city": "Centennial",
		"state": "CO",
		"postal_code": "80122",
		"latitude": 39.5938,
		"longitude": -104.9625,
		"phone_number": "(844) 462-7342",
		"pwp_availability": true,
		"iana_timezone": "US/Mountain",
		"value_day_text": "$6.50 every Tuesday",
		"unlimited_tier": "2"
	},
	{
		"name": "Regal Clarksville",
		"path_name": "regal-clarksville-1534",
		"theatre_code": "1534",
		"address": "1810 Tiny Town Road",
		"city": "Clarksville",
		"state": "TN",
		"postal_code": "37042",
		"latitude": 36.6276,
		"longitude": -87.3259,
		"phone_number": "(844) 462-7342",
		"pwp_availability": true,
		"iana_timezone": "US/Central",
		"value_day_text": "$6.00 every Tuesday",
		"unlimited_tier": "1"
	},
	{
		"name": "Regal Alamo Quarry",
		"path_name": "regal-alamo-quarry-0939",
		"theatre_code": "0939",
		"address": "255 E.Basse",
		"city": "San Antonio",
		"state": "TX",
		"postal_code": "78209",
		"latitude": 29.4993,
		"longitude": -98.4798,
		"phone_number": "(844) 462-7342",
		"pwp_availability": true,
		"iana_timezone": "US/Central",
		"value_day_text": "$5.00 every Tuesday",
		"unlimited_tier": "1"
	},
	{
		"name": "Regal Short Pump",
		"path_name": "regal-short-pump-0730",
		"theatre_code": "0730",
		"address": "11650 West Broad Street",
		"city": "Richmond",
		"state": "VA",
		"postal_code": "23233",
		"latitude": 37.6532,
		"longitude": -77.6136,
		"phone_number": "(844) 462-7342",
		"pwp_availability": true,
		"iana_timezone": "US/Eastern",
		"value_day_text": "$6.50 every Tuesday",
		"unlimited_tier": "2"
	},
	{
		"name": "Regal Cherrydale",
		"path_name": "regal-cherrydale-1885",
		"theatre_code": "1885",
		"address": "3221 N. Pleasantburg Drive",
		"city": "Greenville",
		"state": "SC",
		"postal_code": "29609",
		"latitude": 34.8899,
		"longitude": -82.4007,
		"phone_number": "(844) 462-7342",
		"pwp_availability": true,
		"iana_timezone": "US/Eastern",
		"value_day_text": "$6.50 every Tuesday",
		"unlimited_tier": "2"
	},
	{
		"name": "Regal Hyattsville Royale",
		"path_name": "regal-hyattsville-royale-1863",
		"theatre_code": "1863",
		"address": "6505 America Boulevard",
		"city": "Hyattsville",
		"state": "MD",
		"postal_code": "20782",
		"latitude": 38.9679,
		"longitude": -76.9597,
		"phone_number": "(844) 462-7342",
		"pwp_availability": true,
		"iana_timezone": "US/Eastern",
		"value_day_text": "$6.00 every Tuesday",
		"unlimited_tier": "2"
	},
	{
		"name": "Regal Gallery Place",
		"path_name": "regal-gallery-place-4dx-1551",
		"theatre_code": "1551",
		"address": "701 Seventh Street Northwest",
		"city": "Washington",
		"state": "DC",
		"postal_code": "20001",
		"latitude": 38.8976,
		"longitude": -77.0245,
		"phone_number": "(844) 462-7342",
		"pwp_availability": true,
		"iana_timezone": "US/Eastern",
		"value_day_text": "$7.00 every Tuesday",
		"unlimited_tier": "2"
	},
	{
		"name": "Regal Beaver Creek",
		"path_name": "regal-beaver-creek-1878",
		"theatre_code": "1878",
		"address": "1441 Beaver Creek Commons Dr.",
		"city": "Apex",
		"state": "NC",
		"postal_code": "27502",
		"latitude": 35.7454,
		"longitude": -78.8799,
		"phone_number": "(844) 462-7342",
		"pwp_availability": true,
		"iana_timezone": "US/Eastern",
		"value_day_text": "$6.50 every Tuesday",
		"unlimited_tier": "1"
	},
	{
		"name": "Regal Live Oak",
		"path_name": "regal-live-oak-rpx-0795",
		"theatre_code": "0795",
		"address": "7901 Pat Booker Road",
		"city": "Live Oak",
		"state": "TX",
		"postal_code": "78233",
		"latitude": 29.562,
		"longitude": -98.3314,
		"phone_number": "(844) 462-7342",
		"pwp_availability": true,
		"iana_timezone": "US/Central",
		"value_day_text": "$5.00 every Tuesday",
		"unlimited_tier": "1"
	},
	{
		"name": "Regal Edwards Bakersfield",
		"path_name": "regal-edwards-bakersfield-1031",
		"theatre_code": "1031",
		"address": "9000-G Ming Avenue",
		"city": "Bakersfield",
		"state": "CA",
		"postal_code": "93311",
		"latitude": 35.3393,
		"longitude": -119.1017,
		"phone_number": "(844) 462-7342",
		"pwp_availability": true,
		"iana_timezone": "US/Pacific",
		"value_day_text": "$5.50 every Tuesday",
		"unlimited_tier": "1"
	},
	{
		"name": "Regal Medina",
		"path_name": "regal-medina-0707",
		"theatre_code": "0707",
		"address": "200 West Reagan Pkwy",
		"city": "Medina",
		"state": "OH",
		"postal_code": "44256",
		"latitude": 41.1562,
		"longitude": -81.8752,
		"phone_number": "(844) 462-7342",
		"pwp_availability": true,
		"iana_timezone": "US/Eastern",
		"value_day_text": "$6.00 every Tuesday",
		"unlimited_tier": "1"
	},
	{
		"name": "Regal Spotlight",
		"path_name": "regal-spotlight-1628",
		"theatre_code": "1628",
		"address": "1100 N. Interstate Dr",
		"city": "Norman",
		"state": "OK",
		"postal_code": "73072",
		"latitude": 35.2314,
		"longitude": -97.486,
		"phone_number": "(844) 462-7342",
		"pwp_availability": true,
		"iana_timezone": "US/Central",
		"value_day_text": "$6.00 every Tuesday",
		"unlimited_tier": "2"
	},
	{
		"name": "Regal Harrisonburg",
		"path_name": "regal-harrisonburg-0735",
		"theatre_code": "0735",
		"address": "381 University Blvd.",
		"city": "Harrisonburg",
		"state": "VA",
		"postal_code": "22801",
		"latitude": 38.4303,
		"longitude": -78.86,
		"phone_number": "(844) 462-7342",
		"pwp_availability": true,
		"iana_timezone": "US/Eastern",
		"value_day_text": "$7.00 every Tuesday",
		"unlimited_tier": "2"
	},
	{
		"name": "Regal Westfork",
		"path_name": "regal-westfork-0709",
		"theatre_code": "0709",
		"address": "15977 Pines Blvd. on Dykes Roa",
		"city": "Pembroke Pines",
		"state": "FL",
		"postal_code": "33027",
		"latitude": 26.0077,
		"longitude": -80.3605,
		"phone_number": "(844) 462-7342",
		"pwp_availability": true,
		"iana_timezone": "US/Eastern",
		"value_day_text": "$6.00 every Tuesday",
		"unlimited_tier": "2"
	},
	{
		"name": "Regal Deerfield Town Center",
		"path_name": "regal-deerfield-town-center-rpx-1901",
		"theatre_code": "1901",
		"address": "5500 Deerfield Blvd",
		"city": "Mason",
		"state": "OH",
		"postal_code": "45040",
		"latitude": 39.3079,
		"longitude": -84.3166,
		"phone_number": "(844) 462-7342",
		"pwp_availability": true,
		"iana_timezone": "US/Eastern",
		"value_day_text": "$6.50 every Tuesday",
		"unlimited_tier": "1"
	},
	{
		"name": "Regal Swamp Fox",
		"path_name": "regal-swamp-fox-1854",
		"theatre_code": "1854",
		"address": "3400 Radio Road",
		"city": "Florence",
		"state": "SC",
		"postal_code": "29501",
		"latitude": 34.1923,
		"longitude": -79.8317,
		"phone_number": "(844) 462-7342",
		"pwp_availability": true,
		"iana_timezone": "US/Eastern",
		"value_day_text": "$6.50 every Tuesday",
		"unlimited_tier": "2"
	},
	{
		"name": "Regal Waterford Lakes",
		"path_name": "regal-waterford-lakes-0734",
		"theatre_code": "0734",
		"address": "541 North Alafaya Trail",
		"city": "Orlando",
		"state": "FL",
		"postal_code": "32828",
		"latitude": 28.5558,
		"longitude": -81.2004,
		"phone_number": "(844) 462-7342",
		"pwp_availability": true,
		"iana_timezone": "US/Eastern",
		"value_day_text": "$6.50 every Tuesday",
		"unlimited_tier": "2"
	},
	{
		"name": "Regal Trussville",
		"path_name": "regal-trussville-0760",
		"theatre_code": "0760",
		"address": "5895 Trussville Crossings Pkwy",
		"city": "Birmingham",
		"state": "AL",
		"postal_code": "35235",
		"latitude": 33.6378,
		"longitude": -86.6313,
		"phone_number": "(844) 462-7342",
		"pwp_availability": true,
		"iana_timezone": "US/Central",
		"value_day_text": "$6.50 every Tuesday",
		"unlimited_tier": "1"
	},
	{
		"name": "Regal UA Lee Hills",
		"path_name": "regal-ua-lee-hills-1200",
		"theatre_code": "1200",
		"address": "1350 Boone St",
		"city": "Leesville",
		"state": "LA",
		"postal_code": "71446",
		"latitude": 31.122,
		"longitude": -93.2724,
		"phone_number": "(844) 462-7342",
		"pwp_availability": false,
		"iana_timezone": "US/Central",
		"value_day_text": "$5.50 every Tuesday",
		"unlimited_tier": "1"
	},
	{
		"name": "Regal Alderwood",
		"path_name": "regal-alderwood-rpx-0909",
		"theatre_code": "0909",
		"address": "3501 184th St. SW",
		"city": "Lynnwood",
		"state": "WA",
		"postal_code": "98037",
		"latitude": 47.8323,
		"longitude": -122.2793,
		"phone_number": "(844) 462-7342",
		"pwp_availability": true,
		"iana_timezone": "US/Pacific",
		"value_day_text": "$6.50 every Tuesday",
		"unlimited_tier": "2"
	},
	{
		"name": "Regal Edwards Big Newport",
		"path_name": "regal-edwards-big-newport-rpx-1024",
		"theatre_code": "1024",
		"address": "300 Newport Center Drive East",
		"city": "Newport Beach",
		"state": "CA",
		"postal_code": "92660",
		"latitude": 33.611,
		"longitude": -117.8754,
		"phone_number": "(844) 462-7342",
		"pwp_availability": true,
		"iana_timezone": "US/Pacific",
		"value_day_text": "$7.00 every Tuesday",
		"unlimited_tier": "3"
	},
	{
		"name": "Regal Lakewood",
		"path_name": "regal-lakewood-rpx-0887",
		"theatre_code": "0887",
		"address": "2410 South 84th Street",
		"city": "Lakewood",
		"state": "WA",
		"postal_code": "98499",
		"latitude": 47.1811,
		"longitude": -122.4672,
		"phone_number": "(844) 462-7342",
		"pwp_availability": true,
		"iana_timezone": "US/Pacific",
		"value_day_text": "$6.50 every Tuesday",
		"unlimited_tier": "2"
	},
	{
		"name": "Regal Southwind",
		"path_name": "regal-southwind-1618",
		"theatre_code": "1618",
		"address": "3433 Iowa Street",
		"city": "Lawrence",
		"state": "KS",
		"postal_code": "66046",
		"latitude": 38.9221,
		"longitude": -95.2601,
		"phone_number": "(844) 462-7342",
		"pwp_availability": true,
		"iana_timezone": "US/Central",
		"value_day_text": "$5.50 every Tuesday",
		"unlimited_tier": "1"
	},
	{
		"name": "Regal Hamilton Mill",
		"path_name": "regal-hamilton-mill-1535",
		"theatre_code": "1535",
		"address": "2160 Hamilton Creek Parkway",
		"city": "Dacula",
		"state": "GA",
		"postal_code": "30019",
		"latitude": 34.0707,
		"longitude": -83.9081,
		"phone_number": "(844) 462-7342",
		"pwp_availability": true,
		"iana_timezone": "US/Eastern",
		"value_day_text": "$6.00 every Tuesday",
		"unlimited_tier": "2"
	},
	{
		"name": "Regal Totem",
		"path_name": "regal-totem-0918",
		"theatre_code": "0918",
		"address": "3131 Muldoon Road",
		"city": "Anchorage",
		"state": "AK",
		"postal_code": "99504",
		"latitude": 61.1928,
		"longitude": -149.7334,
		"phone_number": "(844) 462-7342",
		"pwp_availability": true,
		"iana_timezone": "US/Alaska",
		"value_day_text": "$5.50 every Tuesday",
		"unlimited_tier": "1"
	},
	{
		"name": "Regal Greensboro Grande",
		"path_name": "regal-greensboro-grande-rpx-1875",
		"theatre_code": "1875",
		"address": "3205 Northline Avenue",
		"city": "Greensboro",
		"state": "NC",
		"postal_code": "27408",
		"latitude": 36.0884,
		"longitude": -79.8371,
		"phone_number": "(844) 462-7342",
		"pwp_availability": true,
		"iana_timezone": "US/Eastern",
		"value_day_text": "$6.00 every Tuesday",
		"unlimited_tier": "1"
	},
	{
		"name": "Regal Hilltop",
		"path_name": "regal-hilltop-cinema-0853",
		"theatre_code": "0853",
		"address": "325 Beavercreek Road",
		"city": "Oregon City",
		"state": "OR",
		"postal_code": "97045",
		"latitude": 45.3346,
		"longitude": -122.5938,
		"phone_number": "(844) 462-7342",
		"pwp_availability": true,
		"iana_timezone": "US/Pacific",
		"value_day_text": "$6.00 every Tuesday",
		"unlimited_tier": "2"
	},
	{
		"name": "Regal Northwoods",
		"path_name": "regal-northwoods-0940",
		"theatre_code": "0940",
		"address": "17640 Henderson Pass",
		"city": "San Antonio",
		"state": "TX",
		"postal_code": "78232",
		"latitude": 29.6041,
		"longitude": -98.4641,
		"phone_number": "(844) 462-7342",
		"pwp_availability": true,
		"iana_timezone": "US/Central",
		"value_day_text": "$5.00 every Tuesday",
		"unlimited_tier": "1"
	},
	{
		"name": "Regal City Center",
		"path_name": "regal-city-center-0847",
		"theatre_code": "0847",
		"address": "801 C Street",
		"city": "Vancouver",
		"state": "WA",
		"postal_code": "98660",
		"latitude": 45.6275,
		"longitude": -122.668,
		"phone_number": "(844) 462-7342",
		"pwp_availability": true,
		"iana_timezone": "US/Pacific",
		"value_day_text": "$5.00 every Tuesday",
		"unlimited_tier": "2"
	},
	{
		"name": "Regal Lebanon Valley",
		"path_name": "regal-lebanon-valley-1516",
		"theatre_code": "1516",
		"address": "2200 Lebanon Valley Mall Rd",
		"city": "Lebanon",
		"state": "PA",
		"postal_code": "17042",
		"latitude": 40.3405,
		"longitude": -76.4534,
		"phone_number": "(844) 462-7342",
		"pwp_availability": true,
		"iana_timezone": "US/Eastern",
		"value_day_text": "$7.00 every Tuesday",
		"unlimited_tier": "1"
	},
	{
		"name": "Regal Poulsbo",
		"path_name": "regal-poulsbo-0880",
		"theatre_code": "0880",
		"address": "750 NW Edvard Street",
		"city": "Poulsbo",
		"state": "WA",
		"postal_code": "98370",
		"latitude": 47.744,
		"longitude": -122.6558,
		"phone_number": "(844) 462-7342",
		"pwp_availability": true,
		"iana_timezone": "US/Pacific",
		"value_day_text": "$6.50 every Tuesday",
		"unlimited_tier": "2"
	},
	{
		"name": "Regal Edwards Aliso Viejo",
		"path_name": "regal-edwards-aliso-viejo-1032",
		"theatre_code": "1032",
		"address": "26701 Aliso Creek Road",
		"city": "Aliso Viejo",
		"state": "CA",
		"postal_code": "92656",
		"latitude": 33.5548,
		"longitude": -117.7135,
		"phone_number": "(844) 462-7342",
		"pwp_availability": true,
		"iana_timezone": "US/Pacific",
		"value_day_text": "$7.00 every Tuesday",
		"unlimited_tier": "3"
	},
	{
		"name": "Regal Valley Mall",
		"path_name": "regal-valley-mall-screenx-1908",
		"theatre_code": "1908",
		"address": "17301 Valley Mall Road",
		"city": "Hagerstown",
		"state": "MD",
		"postal_code": "21740",
		"latitude": 39.6236,
		"longitude": -77.7692,
		"phone_number": "(844) 462-7342",
		"pwp_availability": true,
		"iana_timezone": "US/Eastern",
		"value_day_text": "$7.00 every Tuesday",
		"unlimited_tier": "1"
	},
	{
		"name": "Regal West Manchester",
		"path_name": "regal-west-manchester-0395",
		"theatre_code": "0395",
		"address": "455 Town Center Drive",
		"city": "York",
		"state": "PA",
		"postal_code": "17408",
		"latitude": 39.9718,
		"longitude": -76.7763,
		"phone_number": "(844) 462-7342",
		"pwp_availability": true,
		"iana_timezone": "US/Eastern",
		"value_day_text": "$6.75 every Tuesday",
		"unlimited_tier": "1"
	},
	{
		"name": "Regal Moorestown Mall",
		"path_name": "regal-moorestown-mall-rpx-1917",
		"theatre_code": "1917",
		"address": "400 Route 38",
		"city": "Moorestown",
		"state": "NJ",
		"postal_code": "08057",
		"latitude": 39.9442,
		"longitude": -74.9682,
		"phone_number": "(844) 462-7342",
		"pwp_availability": false,
		"iana_timezone": "US/Eastern",
		"value_day_text": "$6.50 every Tuesday",
		"unlimited_tier": "2"
	},
	{
		"name": "Regal Westgate",
		"path_name": "regal-westgate-0953",
		"theatre_code": "0953",
		"address": "4477 South Lamar Blvd.",
		"city": "Austin",
		"state": "TX",
		"postal_code": "78745",
		"latitude": 30.2315,
		"longitude": -97.8005,
		"phone_number": "(844) 462-7342",
		"pwp_availability": true,
		"iana_timezone": "US/Central",
		"value_day_text": "$6.00 every Tuesday",
		"unlimited_tier": "1"
	},
	{
		"name": "Regal Gateway",
		"path_name": "regal-gateway-0949",
		"theatre_code": "0949",
		"address": "9700 Stonelake Blvd",
		"city": "Austin",
		"state": "TX",
		"postal_code": "78759",
		"latitude": 30.3878,
		"longitude": -97.7396,
		"phone_number": "(844) 462-7342",
		"pwp_availability": true,
		"iana_timezone": "US/Central",
		"value_day_text": "$6.50 every Tuesday",
		"unlimited_tier": "1"
	},
	{
		"name": "Regal Dimond Center",
		"path_name": "regal-dimond-center-cinemas-0922",
		"theatre_code": "0922",
		"address": "800 E. Dimond  Blvd, Suite 210",
		"city": "Anchorage",
		"state": "AK",
		"postal_code": "99515",
		"latitude": 61.1447,
		"longitude": -149.86771,
		"phone_number": "(844) 462-7342",
		"pwp_availability": true,
		"iana_timezone": "US/Alaska",
		"value_day_text": "$6.50 every Tuesday",
		"unlimited_tier": "2"
	},
	{
		"name": "Regal Massillon",
		"path_name": "regal-massillon-1512",
		"theatre_code": "1512",
		"address": "175 Cherry Rd NW",
		"city": "Massillon",
		"state": "OH",
		"postal_code": "44646",
		"latitude": 40.7994,
		"longitude": -81.529,
		"phone_number": "(844) 462-7342",
		"pwp_availability": true,
		"iana_timezone": "US/Eastern",
		"value_day_text": "$6.00 every Tuesday",
		"unlimited_tier": "1"
	},
	{
		"name": "Regal Crossroads - Cary",
		"path_name": "regal-crossroads-cary-1874",
		"theatre_code": "1874",
		"address": "501 Caitboo Avenue",
		"city": "Cary",
		"state": "NC",
		"postal_code": "27518",
		"latitude": 35.76,
		"longitude": -78.7355,
		"phone_number": "(844) 462-7342",
		"pwp_availability": true,
		"iana_timezone": "US/Eastern",
		"value_day_text": "$6.50 every Tuesday",
		"unlimited_tier": "1"
	},
	{
		"name": "Regal Harbour View Grande",
		"path_name": "regal-harbour-view-grande-1866",
		"theatre_code": "1866",
		"address": "5860 Harbour View Boulevard",
		"city": "Suffolk",
		"state": "VA",
		"postal_code": "23435",
		"latitude": 36.8644,
		"longitude": -76.4469,
		"phone_number": "(844) 462-7342",
		"pwp_availability": true,
		"iana_timezone": "US/Eastern",
		"value_day_text": "$5.50 every Tuesday",
		"unlimited_tier": "1"
	},
	{
		"name": "Regal Biltmore Grande",
		"path_name": "regal-biltmore-grande-rpx-1892",
		"theatre_code": "1892",
		"address": "292 Thetford Street",
		"city": "Asheville",
		"state": "NC",
		"postal_code": "28803",
		"latitude": 35.4838,
		"longitude": -82.5565,
		"phone_number": "(844) 462-7342",
		"pwp_availability": true,
		"iana_timezone": "US/Eastern",
		"value_day_text": "$6.00 every Tuesday",
		"unlimited_tier": "1"
	},
	{
		"name": "Regal Evergreen Parkway",
		"path_name": "regal-evergreen-parkway-rpx-0850",
		"theatre_code": "0850",
		"address": "2625 NE 106th Ave",
		"city": "Hillsboro",
		"state": "OR",
		"postal_code": "97124",
		"latitude": 45.5408,
		"longitude": -122.8686,
		"phone_number": "(844) 462-7342",
		"pwp_availability": true,
		"iana_timezone": "US/Pacific",
		"value_day_text": "$6.25 every Tuesday",
		"unlimited_tier": "2"
	},
	{
		"name": "Regal Edwards Cerritos",
		"path_name": "regal-edwards-cerritos-1018",
		"theatre_code": "1018",
		"address": "12761 Towne Center Drive",
		"city": "Cerritos",
		"state": "CA",
		"postal_code": "90701",
		"latitude": 33.8697,
		"longitude": -118.057,
		"phone_number": "(844) 462-7342",
		"pwp_availability": false,
		"iana_timezone": "US/Pacific",
		"value_day_text": "$6.50 every Tuesday",
		"unlimited_tier": "3"
	},
	{
		"name": "Regal Meridian",
		"path_name": "regal-meridian-4dx-1931",
		"theatre_code": "1931",
		"address": "1501 7th Ave.",
		"city": "Seattle",
		"state": "WA",
		"postal_code": "98101",
		"latitude": 47.6121,
		"longitude": -122.332,
		"phone_number": "(844) 462-7342",
		"pwp_availability": true,
		"iana_timezone": "US/Pacific",
		"value_day_text": "$7.00 every Tuesday",
		"unlimited_tier": "2"
	},
	{
		"name": "Regal Edwards Boise",
		"path_name": "regal-edwards-boise-1027",
		"theatre_code": "1027",
		"address": "7701 W Overland Road",
		"city": "Boise",
		"state": "ID",
		"postal_code": "83709",
		"latitude": 43.5904,
		"longitude": -116.2764,
		"phone_number": "(844) 462-7342",
		"pwp_availability": true,
		"iana_timezone": "US/Mountain",
		"value_day_text": "$5.50 every Tuesday",
		"unlimited_tier": "1"
	},
	{
		"name": "Regal Warren Moore",
		"path_name": "regal-warren-moore-1447",
		"theatre_code": "1447",
		"address": "1000 Telephone Rd.",
		"city": "Moore",
		"state": "OK",
		"postal_code": "73160",
		"latitude": 35.3289,
		"longitude": -97.4929,
		"phone_number": "(844) 462-7342",
		"pwp_availability": false,
		"iana_timezone": "US/Central",
		"value_day_text": "$5.50 every Tuesday",
		"unlimited_tier": "2"
	},
	{
		"name": "Regal Spartan",
		"path_name": "regal-spartan-1888",
		"theatre_code": "1888",
		"address": "855 Spartan Boulevard",
		"city": "Spartanburg",
		"state": "SC",
		"postal_code": "29301",
		"latitude": 34.9545,
		"longitude": -82,
		"phone_number": "(844) 462-7342",
		"pwp_availability": true,
		"iana_timezone": "US/Eastern",
		"value_day_text": "$6.00 every Tuesday",
		"unlimited_tier": "1"
	},
	{
		"name": "Regal South Hill",
		"path_name": "regal-south-hill-cinema-0885",
		"theatre_code": "0885",
		"address": "3500 S Meridian",
		"city": "Puyallup",
		"state": "WA",
		"postal_code": "98373",
		"latitude": 47.1673,
		"longitude": -122.2918,
		"phone_number": "(844) 462-7342",
		"pwp_availability": true,
		"iana_timezone": "US/Pacific",
		"value_day_text": "$6.50 every Tuesday",
		"unlimited_tier": "2"
	},
	{
		"name": "Regal New Town",
		"path_name": "regal-new-town-1868",
		"theatre_code": "1868",
		"address": "4911 Courthouse Street",
		"city": "Williamsburg",
		"state": "VA",
		"postal_code": "23188",
		"latitude": 37.276,
		"longitude": -76.739,
		"phone_number": "(844) 462-7342",
		"pwp_availability": true,
		"iana_timezone": "US/Eastern",
		"value_day_text": "$6.50 every Tuesday",
		"unlimited_tier": "1"
	},
	{
		"name": "Regal Battery Park",
		"path_name": "regal-battery-park-1335",
		"theatre_code": "1335",
		"address": "102 North End Ave.",
		"city": "New York",
		"state": "NY",
		"postal_code": "10282",
		"latitude": 40.7147,
		"longitude": -74.0155,
		"phone_number": "(844) 462-7342",
		"pwp_availability": true,
		"iana_timezone": "US/Eastern",
		"value_day_text": "$8.00 every Tuesday",
		"unlimited_tier": "3"
	},
	{
		"name": "Regal Dulles Town Center",
		"path_name": "regal-dulles-town-center-1672",
		"theatre_code": "1672",
		"address": "21100 Dulles Town Cir, Ste 203",
		"city": "Sterling",
		"state": "VA",
		"postal_code": "20164",
		"latitude": 39.0319,
		"longitude": -77.4235,
		"phone_number": "(844) 462-7342",
		"pwp_availability": true,
		"iana_timezone": "US/Eastern",
		"value_day_text": "$6.50 every Tuesday",
		"unlimited_tier": "2"
	},
	{
		"name": "Regal Spokane Valley",
		"path_name": "regal-spokane-valley-0895",
		"theatre_code": "0895",
		"address": "14760 E Indiana Avenue",
		"city": "Spokane Valley",
		"state": "WA",
		"postal_code": "99216",
		"latitude": 47.6708,
		"longitude": -117.1947,
		"phone_number": "(844) 462-7342",
		"pwp_availability": true,
		"iana_timezone": "US/Pacific",
		"value_day_text": "$6.50 every Tuesday",
		"unlimited_tier": "2"
	},
	{
		"name": "Regal Warren Broken Arrow",
		"path_name": "regal-warren-broken-arrow-1448",
		"theatre_code": "1448",
		"address": "1700 W. Aspen Creek Dr.",
		"city": "Broken Arrow",
		"state": "OK",
		"postal_code": "74011",
		"latitude": 35.9913,
		"longitude": -95.8096,
		"phone_number": "(844) 462-7342",
		"pwp_availability": true,
		"iana_timezone": "US/Central",
		"value_day_text": "$5.00 every Tuesday",
		"unlimited_tier": "1"
	},
	{
		"name": "Regal Nu'uuli Place Twin",
		"path_name": "regal-nuuuli-place-twin-1647",
		"theatre_code": "1647",
		"address": "202 Pago Plaza",
		"city": "Pago Pago",
		"state": "AS",
		"postal_code": "96799",
		"latitude": -14.2733,
		"longitude": -170.7021,
		"phone_number": "(844) 462-7342",
		"pwp_availability": false,
		"iana_timezone": "Pacific/Pago_Pago",
		"value_day_text": "$5.50 every Tuesday",
		"unlimited_tier": "1"
	},
	{
		"name": "Regal Santiam",
		"path_name": "regal-santiam-0863",
		"theatre_code": "0863",
		"address": "365 Lancaster Drive SE",
		"city": "Salem",
		"state": "OR",
		"postal_code": "97317",
		"latitude": 44.9246,
		"longitude": -122.9832,
		"phone_number": "(844) 462-7342",
		"pwp_availability": true,
		"iana_timezone": "US/Pacific",
		"value_day_text": "$6.00 every Tuesday",
		"unlimited_tier": "2"
	},
	{
		"name": "Regal Auburn - Washington",
		"path_name": "regal-auburn-washington-0877",
		"theatre_code": "0877",
		"address": "1101 Outlet Collection Way, Ste. 901",
		"city": "Auburn",
		"state": "WA",
		"postal_code": "98001",
		"latitude": 47.2996,
		"longitude": -122.2405,
		"phone_number": "(844) 462-7342",
		"pwp_availability": true,
		"iana_timezone": "US/Pacific",
		"value_day_text": "$6.50 every Tuesday",
		"unlimited_tier": "2"
	},
	{
		"name": "Regal Metropolitan",
		"path_name": "regal-metropolitan-0950",
		"theatre_code": "0950",
		"address": "901 Little Texas Lane",
		"city": "Austin",
		"state": "TX",
		"postal_code": "78745",
		"latitude": 30.1982,
		"longitude": -97.7699,
		"phone_number": "(844) 462-7342",
		"pwp_availability": true,
		"iana_timezone": "US/Central",
		"value_day_text": "$6.00 every Tuesday",
		"unlimited_tier": "1"
	},
	{
		"name": "Regal Crossroads - Taylorsville",
		"path_name": "regal-crossroads-rpx-taylorsville-1426",
		"theatre_code": "1426",
		"address": "5516 South Redwood Road",
		"city": "Taylorsville",
		"state": "UT",
		"postal_code": "84123",
		"latitude": 40.6509,
		"longitude": -111.942,
		"phone_number": "(844) 462-7342",
		"pwp_availability": true,
		"iana_timezone": "US/Mountain",
		"value_day_text": "$5.50 every Tuesday",
		"unlimited_tier": "1"
	},
	{
		"name": "Regal Edwards La Verne",
		"path_name": "regal-edwards-la-verne-1012",
		"theatre_code": "1012",
		"address": "1950 East Foothill Boulevard",
		"city": "La Verne",
		"state": "CA",
		"postal_code": "91750",
		"latitude": 34.113,
		"longitude": -117.7683,
		"phone_number": "(844) 462-7342",
		"pwp_availability": false,
		"iana_timezone": "US/Pacific",
		"value_day_text": "$7.00 every Tuesday",
		"unlimited_tier": "3"
	},
	{
		"name": "Regal Kendall Village",
		"path_name": "regal-kendall-village-0996",
		"theatre_code": "0996",
		"address": "8595 S.W. 124 Avenue",
		"city": "Miami",
		"state": "FL",
		"postal_code": "33183",
		"latitude": 25.6873,
		"longitude": -80.3947,
		"phone_number": "(844) 462-7342",
		"pwp_availability": true,
		"iana_timezone": "US/Eastern",
		"value_day_text": "$6.50 every Tuesday",
		"unlimited_tier": "2"
	},
	{
		"name": "Regal Edwards Metro Pointe",
		"path_name": "regal-edwards-metro-pointe-1007",
		"theatre_code": "1007",
		"address": "901 South Coast Drive",
		"city": "Costa Mesa",
		"state": "CA",
		"postal_code": "92626",
		"latitude": 33.6913,
		"longitude": -117.8918,
		"phone_number": "(844) 462-7342",
		"pwp_availability": true,
		"iana_timezone": "US/Pacific",
		"value_day_text": "$6.00 every Tuesday",
		"unlimited_tier": "3"
	},
	{
		"name": "Regal Magnolia Place",
		"path_name": "regal-magnolia-place-0339",
		"theatre_code": "0339",
		"address": "9645 Westview Drive",
		"city": "Coral Springs",
		"state": "FL",
		"postal_code": "33076",
		"latitude": 26.2974,
		"longitude": -80.2549,
		"phone_number": "(844) 462-7342",
		"pwp_availability": true,
		"iana_timezone": "US/Eastern",
		"value_day_text": "$6.00 every Tuesday",
		"unlimited_tier": "2"
	},
	{
		"name": "Regal Transit Center",
		"path_name": "regal-transit-center-0294",
		"theatre_code": "0294",
		"address": "6707 Transit Road",
		"city": "Williamsville",
		"state": "NY",
		"postal_code": "14221",
		"latitude": 42.9571,
		"longitude": -78.6969,
		"phone_number": "(844) 462-7342",
		"pwp_availability": true,
		"iana_timezone": "US/Eastern",
		"value_day_text": "$6.50 every Tuesday",
		"unlimited_tier": "2"
	},
	{
		"name": "Regal Northtown Mall",
		"path_name": "regal-northtown-mall-0883",
		"theatre_code": "0883",
		"address": "4750 North Division Street",
		"city": "Spokane",
		"state": "WA",
		"postal_code": "99207",
		"latitude": 47.701,
		"longitude": -117.411,
		"phone_number": "(844) 462-7342",
		"pwp_availability": true,
		"iana_timezone": "US/Pacific",
		"value_day_text": "$6.50 every Tuesday",
		"unlimited_tier": "2"
	},
	{
		"name": "Regal University Town Center",
		"path_name": "regal-edwards-university-town-center-1025",
		"theatre_code": "1025",
		"address": "4245 Campus Drive",
		"city": "Irvine",
		"state": "CA",
		"postal_code": "92612",
		"latitude": 33.6501,
		"longitude": -117.8386,
		"phone_number": "(844) 462-7342",
		"pwp_availability": true,
		"iana_timezone": "US/Pacific",
		"value_day_text": "$7.00 every Tuesday",
		"unlimited_tier": "3"
	},
	{
		"name": "Regal Nitro",
		"path_name": "regal-nitro-1518",
		"theatre_code": "1518",
		"address": "12 JW Drive",
		"city": "Cross Lanes",
		"state": "WV",
		"postal_code": "25313",
		"latitude": 38.4221,
		"longitude": -81.8095,
		"phone_number": "(844) 462-7342",
		"pwp_availability": true,
		"iana_timezone": "US/Eastern",
		"value_day_text": "$5.00 every Tuesday",
		"unlimited_tier": "1"
	},
	{
		"name": "Regal Stonecrest at Piper Glen",
		"path_name": "regal-stonecrest-piper-glen-0384",
		"theatre_code": "0384",
		"address": "7824 Rea Road",
		"city": "Charlotte",
		"state": "NC",
		"postal_code": "28277",
		"latitude": 35.0604,
		"longitude": -80.8135,
		"phone_number": "(844) 462-7342",
		"pwp_availability": true,
		"iana_timezone": "US/Eastern",
		"value_day_text": "$6.00 every Tuesday",
		"unlimited_tier": "1"
	},
	{
		"name": "Regal Mayfaire",
		"path_name": "regal-mayfaire-1873",
		"theatre_code": "1873",
		"address": "900 Town Center Drive",
		"city": "Wilmington",
		"state": "NC",
		"postal_code": "28405",
		"latitude": 34.228,
		"longitude": -77.83,
		"phone_number": "(844) 462-7342",
		"pwp_availability": true,
		"iana_timezone": "US/Eastern",
		"value_day_text": "$6.00 every Tuesday",
		"unlimited_tier": "1"
	},
	{
		"name": "Regal Manchester - Rock Hill",
		"path_name": "regal-manchester-rock-hill-1886",
		"theatre_code": "1886",
		"address": "1935 Cinema Drive",
		"city": "Rock Hill",
		"state": "SC",
		"postal_code": "29730",
		"latitude": 34.945,
		"longitude": -80.981,
		"phone_number": "(844) 462-7342",
		"pwp_availability": true,
		"iana_timezone": "US/Eastern",
		"value_day_text": "$6.50 every Tuesday",
		"unlimited_tier": "1"
	},
	{
		"name": "Regal Edwards Camarillo Palace",
		"path_name": "regal-edwards-camarillo-palace-1009",
		"theatre_code": "1009",
		"address": "680 Ventura Boulevard",
		"city": "Camarillo",
		"state": "CA",
		"postal_code": "93010",
		"latitude": 34.2171,
		"longitude": -119.0632,
		"phone_number": "(844) 462-7342",
		"pwp_availability": false,
		"iana_timezone": "US/Pacific",
		"value_day_text": "$6.50 every Tuesday",
		"unlimited_tier": "2"
	},
	{
		"name": "Regal Cinema 99",
		"path_name": "regal-cinema-99-0846",
		"theatre_code": "0846",
		"address": "9010 NE Hwy 99",
		"city": "Vancouver",
		"state": "WA",
		"postal_code": "98665",
		"latitude": 45.6883,
		"longitude": -122.6628,
		"phone_number": "(844) 462-7342",
		"pwp_availability": true,
		"iana_timezone": "US/Pacific",
		"value_day_text": "$5.00 every Tuesday",
		"unlimited_tier": "2"
	},
	{
		"name": "Regal Stark Street",
		"path_name": "regal-stark-street-0856",
		"theatre_code": "0856",
		"address": "2929 N.E. Kane Drive",
		"city": "Gresham",
		"state": "OR",
		"postal_code": "97030",
		"latitude": 45.5184,
		"longitude": -122.3971,
		"phone_number": "(844) 462-7342",
		"pwp_availability": true,
		"iana_timezone": "US/Pacific",
		"value_day_text": "$6.00 every Tuesday",
		"unlimited_tier": "2"
	},
	{
		"name": "Regal UA Kaufman Astoria",
		"path_name": "regal-ua-kaufman-astoria-rpx-1333",
		"theatre_code": "1333",
		"address": "35-30 38th Street",
		"city": "Long Island City",
		"state": "NY",
		"postal_code": "11101",
		"latitude": 40.7556,
		"longitude": -73.9236,
		"phone_number": "(844) 462-7342",
		"pwp_availability": true,
		"iana_timezone": "US/Eastern",
		"value_day_text": "$7.00 every Tuesday",
		"unlimited_tier": "3"
	},
	{
		"name": "Regal Division Street",
		"path_name": "regal-division-street-0851",
		"theatre_code": "0851",
		"address": "16603 SE Division St.",
		"city": "Portland",
		"state": "OR",
		"postal_code": "97236",
		"latitude": 45.5046,
		"longitude": -122.491,
		"phone_number": "(844) 462-7342",
		"pwp_availability": true,
		"iana_timezone": "US/Pacific",
		"value_day_text": "$6.00 every Tuesday",
		"unlimited_tier": "2"
	},
	{
		"name": "Regal Bella Bottega",
		"path_name": "regal-bella-bottega-0904",
		"theatre_code": "0904",
		"address": "8890 NE 161st Avenue",
		"city": "Redmond",
		"state": "WA",
		"postal_code": "98052",
		"latitude": 47.6811,
		"longitude": -122.1232,
		"phone_number": "(844) 462-7342",
		"pwp_availability": true,
		"iana_timezone": "US/Pacific",
		"value_day_text": "$6.00 every Tuesday",
		"unlimited_tier": "2"
	},
	{
		"name": "Regal Griffin",
		"path_name": "regal-griffin-1424",
		"theatre_code": "1424",
		"address": "1367 N. Express Way",
		"city": "Griffin",
		"state": "GA",
		"postal_code": "30223",
		"latitude": 33.2694,
		"longitude": -84.2947,
		"phone_number": "(844) 462-7342",
		"pwp_availability": true,
		"iana_timezone": "US/Eastern",
		"value_day_text": "$6.00 every Tuesday",
		"unlimited_tier": "2"
	},
	{
		"name": "Regal Cinebarre West Town Mall",
		"path_name": "regal-cinebarre-west-town-mall-1462",
		"theatre_code": "1462",
		"address": "7600 Kingston Pike, Suite 1520",
		"city": "Knoxville",
		"state": "TN",
		"postal_code": "37919",
		"latitude": 35.9236,
		"longitude": -84.0336,
		"phone_number": "(844) 462-7342",
		"pwp_availability": false,
		"iana_timezone": "US/Eastern",
		"value_day_text": "$6.50 every Tuesday",
		"unlimited_tier": "1"
	},
	{
		"name": "Regal Celebration Pointe",
		"path_name": "regal-celebration-pointe-rpx-1416",
		"theatre_code": "1416",
		"address": "4901 Steve Spurrier Way",
		"city": "Gainesville",
		"state": "FL",
		"postal_code": "32608",
		"latitude": 29.624,
		"longitude": -82.3955,
		"phone_number": "(844) 462-7342",
		"pwp_availability": false,
		"iana_timezone": "US/Eastern",
		"value_day_text": "$6.50 every Tuesday",
		"unlimited_tier": "2"
	},
	{
		"name": "Regal Crossroads - Bellevue",
		"path_name": "regal-crossroads-bellevue-0905",
		"theatre_code": "0905",
		"address": "1200  156th Avenue NE",
		"city": "Bellevue",
		"state": "WA",
		"postal_code": "98008",
		"latitude": 47.6207,
		"longitude": -122.131,
		"phone_number": "(844) 462-7342",
		"pwp_availability": true,
		"iana_timezone": "US/Pacific",
		"value_day_text": "$6.50 every Tuesday",
		"unlimited_tier": "2"
	},
	{
		"name": "Regal Garden Grove",
		"path_name": "regal-garden-grove-0364",
		"theatre_code": "0364",
		"address": "9741 Chapman Avenue",
		"city": "Garden Grove",
		"state": "CA",
		"postal_code": "92841",
		"latitude": 33.7886,
		"longitude": -117.9626,
		"phone_number": "(844) 462-7342",
		"pwp_availability": false,
		"iana_timezone": "US/Pacific",
		"value_day_text": "$6.00 every Tuesday",
		"unlimited_tier": "3"
	},
	{
		"name": "Regal Irvine Spectrum",
		"path_name": "regal-edwards-irvine-spectrum-1010",
		"theatre_code": "1010",
		"address": "500 Spectrum Center Drive",
		"city": "Irvine",
		"state": "CA",
		"postal_code": "92618",
		"latitude": 33.6512,
		"longitude": -117.7444,
		"phone_number": "(844) 462-7342",
		"pwp_availability": true,
		"iana_timezone": "US/Pacific",
		"value_day_text": "$7.00 every Tuesday",
		"unlimited_tier": "3"
	},
	{
		"name": "Regal Aliante",
		"path_name": "regal-aliante-1933",
		"theatre_code": "1933",
		"address": "7300 Aliante Parkway",
		"city": "North Las Vegas",
		"state": "NV",
		"postal_code": "89084",
		"latitude": 36.2921,
		"longitude": -115.1783,
		"phone_number": "(844) 462-7342",
		"pwp_availability": true,
		"iana_timezone": "US/Pacific",
		"value_day_text": "$6.25 every Tuesday",
		"unlimited_tier": "2"
	},
	{
		"name": "Regal Elmwood Center",
		"path_name": "regal-elmwood-center-0341",
		"theatre_code": "0341",
		"address": "2001 Elmwood Avenue",
		"city": "Buffalo",
		"state": "NY",
		"postal_code": "14207",
		"latitude": 42.952,
		"longitude": -78.8782,
		"phone_number": "(844) 462-7342",
		"pwp_availability": true,
		"iana_timezone": "US/Eastern",
		"value_day_text": "$6.50 every Tuesday",
		"unlimited_tier": "2"
	},
	{
		"name": "Regal Simi Valley Civic Center",
		"path_name": "regal-simi-valley-civic-center-0391",
		"theatre_code": "0391",
		"address": "2751 Tapo Cyn Road",
		"city": "Simi Valley",
		"state": "CA",
		"postal_code": "93063",
		"latitude": 34.286,
		"longitude": -118.716,
		"phone_number": "(844) 462-7342",
		"pwp_availability": false,
		"iana_timezone": "US/Pacific",
		"value_day_text": "$6.50 every Tuesday",
		"unlimited_tier": "3"
	},
	{
		"name": "Regal Georgian",
		"path_name": "regal-georgian-1891",
		"theatre_code": "1891",
		"address": "232 Newnan Crossing Bypass",
		"city": "Newnan",
		"state": "GA",
		"postal_code": "30265",
		"latitude": 33.392,
		"longitude": -84.761,
		"phone_number": "(844) 462-7342",
		"pwp_availability": true,
		"iana_timezone": "US/Eastern",
		"value_day_text": "$6.00 every Tuesday",
		"unlimited_tier": "2"
	},
	{
		"name": "Regal Southpark Mall",
		"path_name": "regal-southpark-mall-1902",
		"theatre_code": "1902",
		"address": "300 Southpark Circle",
		"city": "Colonial Heights",
		"state": "VA",
		"postal_code": "23834",
		"latitude": 37.2544,
		"longitude": -77.3931,
		"phone_number": "(844) 462-7342",
		"pwp_availability": true,
		"iana_timezone": "US/Eastern",
		"value_day_text": "$6.50 every Tuesday",
		"unlimited_tier": "2"
	},
	{
		"name": "Regal Fairfield Commons",
		"path_name": "regal-fairfield-commons-rpx-0389",
		"theatre_code": "0389",
		"address": "2651 Fairfield Commons",
		"city": "Beavercreek",
		"state": "OH",
		"postal_code": "45431",
		"latitude": 39.766,
		"longitude": -84.0525,
		"phone_number": "(844) 462-7342",
		"pwp_availability": true,
		"iana_timezone": "US/Eastern",
		"value_day_text": "$6.00 every Tuesday",
		"unlimited_tier": "1"
	},
	{
		"name": "Regal Colonie Center",
		"path_name": "regal-colonie-center-rpx-1923",
		"theatre_code": "1923",
		"address": "131 Colonie Center",
		"city": "Albany",
		"state": "NY",
		"postal_code": "12205",
		"latitude": 42.7117,
		"longitude": -73.8183,
		"phone_number": "(844) 462-7342",
		"pwp_availability": false,
		"iana_timezone": "US/Eastern",
		"value_day_text": "$7.00 every Tuesday",
		"unlimited_tier": "3"
	},
	{
		"name": "Regal White Oak",
		"path_name": "regal-white-oak-1876",
		"theatre_code": "1876",
		"address": "1205 Timber Drive East",
		"city": "Garner",
		"state": "NC",
		"postal_code": "27529",
		"latitude": 35.6891,
		"longitude": -78.5757,
		"phone_number": "(844) 462-7342",
		"pwp_availability": true,
		"iana_timezone": "US/Eastern",
		"value_day_text": "$6.00 every Tuesday",
		"unlimited_tier": "1"
	},
	{
		"name": "Regal Edwards Valencia",
		"path_name": "regal-edwards-valencia-1038",
		"theatre_code": "1038",
		"address": "24435 Town Center Drive",
		"city": "Santa Clarita",
		"state": "CA",
		"postal_code": "91355",
		"latitude": 34.4108,
		"longitude": -118.5608,
		"phone_number": "(844) 462-7342",
		"pwp_availability": false,
		"iana_timezone": "US/Pacific",
		"value_day_text": "$7.00 every Tuesday",
		"unlimited_tier": "3"
	},
	{
		"name": "Regal Park Place",
		"path_name": "regal-park-place-rpx-1914",
		"theatre_code": "1914",
		"address": "7200 US Highway 19 North",
		"city": "Pinellas Park",
		"state": "FL",
		"postal_code": "33781",
		"latitude": 27.837,
		"longitude": -82.682,
		"phone_number": "(844) 462-7342",
		"pwp_availability": true,
		"iana_timezone": "US/Eastern",
		"value_day_text": "$5.00 every Tuesday",
		"unlimited_tier": "1"
	},
	{
		"name": "Regal Edwards Mira Mesa",
		"path_name": "regal-edwards-mira-mesa-1043",
		"theatre_code": "1043",
		"address": "10733 Westview Parkway",
		"city": "San Diego",
		"state": "CA",
		"postal_code": "92126",
		"latitude": 32.913,
		"longitude": -117.1421,
		"phone_number": "(844) 462-7342",
		"pwp_availability": true,
		"iana_timezone": "US/Pacific",
		"value_day_text": "$6.50 every Tuesday",
		"unlimited_tier": "3"
	},
	{
		"name": "Regal Grand Esplanade",
		"path_name": "regal-grand-esplanade-gpx-1480",
		"theatre_code": "1480",
		"address": "1401 W. Esplanade Ave.",
		"city": "Kenner",
		"state": "LA",
		"postal_code": "70065",
		"latitude": 30.0171,
		"longitude": -90.2506,
		"phone_number": "(844) 462-7342",
		"pwp_availability": true,
		"iana_timezone": "US/Central",
		"value_day_text": "$6.50 every Tuesday",
		"unlimited_tier": "1"
	},
	{
		"name": "Regal Columbiana Grande",
		"path_name": "regal-columbiana-grande-1887",
		"theatre_code": "1887",
		"address": "1250 Bower Parkway",
		"city": "Columbia",
		"state": "SC",
		"postal_code": "29212",
		"latitude": 34.0709,
		"longitude": -81.1507,
		"phone_number": "(844) 462-7342",
		"pwp_availability": true,
		"iana_timezone": "US/Eastern",
		"value_day_text": "$6.50 every Tuesday",
		"unlimited_tier": "1"
	},
	{
		"name": "Regal Rancho Del Rey",
		"path_name": "regal-rancho-del-rey-0361",
		"theatre_code": "0361",
		"address": "1025 Tierra Del Rey",
		"city": "Chula Vista",
		"state": "CA",
		"postal_code": "91910",
		"latitude": 32.6375,
		"longitude": -117.0194,
		"phone_number": "(844) 462-7342",
		"pwp_availability": true,
		"iana_timezone": "US/Pacific",
		"value_day_text": "$5.50 every Tuesday",
		"unlimited_tier": "1"
	},
	{
		"name": "Regal Edwards San Marcos",
		"path_name": "regal-edwards-san-marcos-1034",
		"theatre_code": "1034",
		"address": "1180 W San Marcos Boulevard",
		"city": "San Marcos",
		"state": "CA",
		"postal_code": "92069",
		"latitude": 33.1337,
		"longitude": -117.192,
		"phone_number": "(844) 462-7342",
		"pwp_availability": true,
		"iana_timezone": "US/Pacific",
		"value_day_text": "$6.00 every Tuesday",
		"unlimited_tier": "3"
	},
	{
		"name": "Regal New Roc",
		"path_name": "regal-new-roc-0297",
		"theatre_code": "0297",
		"address": "33 Le Count Place",
		"city": "New Rochelle",
		"state": "NY",
		"postal_code": "10801",
		"latitude": 40.9108,
		"longitude": -73.7803,
		"phone_number": "(844) 462-7342",
		"pwp_availability": true,
		"iana_timezone": "US/Eastern",
		"value_day_text": "$7.50 every Tuesday",
		"unlimited_tier": "3"
	},
	{
		"name": "Regal Edwards Brea East",
		"path_name": "regal-edwards-brea-east-1028",
		"theatre_code": "1028",
		"address": "155 West  Birch Street",
		"city": "Brea",
		"state": "CA",
		"postal_code": "92821",
		"latitude": 33.919,
		"longitude": -117.8997,
		"phone_number": "(844) 462-7342",
		"pwp_availability": false,
		"iana_timezone": "US/Pacific",
		"value_day_text": "$6.50 every Tuesday",
		"unlimited_tier": "3"
	},
	{
		"name": "Regal Destiny USA",
		"path_name": "regal-destiny-usa-1733",
		"theatre_code": "1733",
		"address": "9586 Destiny USA Drive",
		"city": "Syracuse",
		"state": "NY",
		"postal_code": "13204",
		"latitude": 43.0683,
		"longitude": -76.1707,
		"phone_number": "(844) 462-7342",
		"pwp_availability": true,
		"iana_timezone": "US/Eastern",
		"value_day_text": "$6.50 every Tuesday",
		"unlimited_tier": "2"
	},
	{
		"name": "Regal Westview",
		"path_name": "regal-westview-1910",
		"theatre_code": "1910",
		"address": "5243 Buckeystown Pike",
		"city": "Frederick",
		"state": "MD",
		"postal_code": "21704",
		"latitude": 39.3741,
		"longitude": -77.413,
		"phone_number": "(844) 462-7342",
		"pwp_availability": true,
		"iana_timezone": "US/Eastern",
		"value_day_text": "$7.00 every Tuesday",
		"unlimited_tier": "2"
	},
	{
		"name": "Regal Hamilton Commons",
		"path_name": "regal-hamilton-commons-1729",
		"theatre_code": "1729",
		"address": "4215 Black Horse Pike, Lot 600",
		"city": "Mays Landing",
		"state": "NJ",
		"postal_code": "08330",
		"latitude": 39.451,
		"longitude": -74.643,
		"phone_number": "(844) 462-7342",
		"pwp_availability": true,
		"iana_timezone": "US/Eastern",
		"value_day_text": "$7.00 every Tuesday",
		"unlimited_tier": "2"
	},
	{
		"name": "Regal Willoughby Commons",
		"path_name": "regal-willoughby-commons-0381",
		"theatre_code": "0381",
		"address": "36655 Euclid Avenue",
		"city": "Willoughby",
		"state": "OH",
		"postal_code": "44094",
		"latitude": 41.6284,
		"longitude": -81.4234,
		"phone_number": "(844) 462-7342",
		"pwp_availability": true,
		"iana_timezone": "US/Eastern",
		"value_day_text": "$6.00 every Tuesday",
		"unlimited_tier": "1"
	},
	{
		"name": "Regal Pavilion",
		"path_name": "regal-pavilion-rpx-1613",
		"theatre_code": "1613",
		"address": "5547 S Williamson Blvd",
		"city": "Port Orange",
		"state": "FL",
		"postal_code": "32128",
		"latitude": 29.1099,
		"longitude": -81.0337,
		"phone_number": "(844) 462-7342",
		"pwp_availability": true,
		"iana_timezone": "US/Eastern",
		"value_day_text": "$5.50 every Tuesday",
		"unlimited_tier": "1"
	},
	{
		"name": "Regal Palm Springs",
		"path_name": "regal-palm-springs-1802",
		"theatre_code": "1802",
		"address": "789 E Tahquitz Canyon Way",
		"city": "Palm Springs",
		"state": "CA",
		"postal_code": "92262",
		"latitude": 33.8227,
		"longitude": -116.5399,
		"phone_number": "(844) 462-7342",
		"pwp_availability": true,
		"iana_timezone": "US/Pacific",
		"value_day_text": "$6.00 every Tuesday",
		"unlimited_tier": "2"
	},
	{
		"name": "Regal Kingstowne",
		"path_name": "regal-kingstowne-rpx-1865",
		"theatre_code": "1865",
		"address": "5910 Kingstowne Towne Center",
		"city": "Alexandria",
		"state": "VA",
		"postal_code": "22315",
		"latitude": 38.7694,
		"longitude": -77.1428,
		"phone_number": "(844) 462-7342",
		"pwp_availability": true,
		"iana_timezone": "US/Eastern",
		"value_day_text": "$6.50 every Tuesday",
		"unlimited_tier": "3"
	},
	{
		"name": "Regal Carlsbad",
		"path_name": "regal-carlsbad-1778",
		"theatre_code": "1778",
		"address": "2501 El Camino Real",
		"city": "Carlsbad",
		"state": "CA",
		"postal_code": "92008",
		"latitude": 33.1786,
		"longitude": -117.329,
		"phone_number": "(844) 462-7342",
		"pwp_availability": false,
		"iana_timezone": "US/Pacific",
		"value_day_text": "$6.50 every Tuesday",
		"unlimited_tier": "3"
	},
	{
		"name": "Regal West Ridge",
		"path_name": "regal-west-ridge-1619",
		"theatre_code": "1619",
		"address": "1727 SW Wanamaker Rd",
		"city": "Topeka",
		"state": "KS",
		"postal_code": "66604",
		"latitude": 39.0355,
		"longitude": -95.7617,
		"phone_number": "(844) 462-7342",
		"pwp_availability": true,
		"iana_timezone": "US/Central",
		"value_day_text": "$5.50 every Tuesday",
		"unlimited_tier": "1"
	},
	{
		"name": "Regal Interquest",
		"path_name": "regal-interquest-rpx-1609",
		"theatre_code": "1609",
		"address": "1120 Interquest Pkwy",
		"city": "Colorado Springs",
		"state": "CO",
		"postal_code": "80920",
		"latitude": 38.9878,
		"longitude": -104.7924,
		"phone_number": "(844) 462-7342",
		"pwp_availability": true,
		"iana_timezone": "US/Mountain",
		"value_day_text": "$6.00 every Tuesday",
		"unlimited_tier": "1"
	},
	{
		"name": "Regal Wekiva Riverwalk",
		"path_name": "regal-wekiva-riverwalk-1258",
		"theatre_code": "1258",
		"address": "2141 North Semoran Blvd",
		"city": "Apopka",
		"state": "FL",
		"postal_code": "32703",
		"latitude": 28.6728,
		"longitude": -81.4706,
		"phone_number": "(844) 462-7342",
		"pwp_availability": true,
		"iana_timezone": "US/Eastern",
		"value_day_text": "$6.50 every Tuesday",
		"unlimited_tier": "1"
	},
	{
		"name": "Regal Mashpee Commons",
		"path_name": "regal-mashpee-commons-1718",
		"theatre_code": "1718",
		"address": "15 Steeple Street",
		"city": "Mashpee",
		"state": "MA",
		"postal_code": "02649",
		"latitude": 41.6185,
		"longitude": -70.4877,
		"phone_number": "(844) 462-7342",
		"pwp_availability": false,
		"iana_timezone": "US/Eastern",
		"value_day_text": "$7.00 every Tuesday",
		"unlimited_tier": "2"
	},
	{
		"name": "Regal Riviera",
		"path_name": "regal-riviera-0690",
		"theatre_code": "0690",
		"address": "510 South Gay Street",
		"city": "Knoxville",
		"state": "TN",
		"postal_code": "37902",
		"latitude": 35.9658,
		"longitude": -83.9185,
		"phone_number": "(844) 462-7342",
		"pwp_availability": true,
		"iana_timezone": "US/Eastern",
		"value_day_text": "$6.50 every Tuesday",
		"unlimited_tier": "1"
	},
	{
		"name": "Regal Ithaca Mall",
		"path_name": "regal-ithaca-mall-0677",
		"theatre_code": "0677",
		"address": "40 Catherwood Road",
		"city": "Ithaca",
		"state": "NY",
		"postal_code": "14850",
		"latitude": 42.484,
		"longitude": -76.488,
		"phone_number": "(844) 462-7342",
		"pwp_availability": true,
		"iana_timezone": "US/Eastern",
		"value_day_text": "$7.00 every Tuesday",
		"unlimited_tier": "3"
	},
	{
		"name": "Regal Rancho Mirage",
		"path_name": "regal-rancho-mirage-1801",
		"theatre_code": "1801",
		"address": "72-777 Dinah Shore Drive",
		"city": "Rancho Mirage",
		"state": "CA",
		"postal_code": "92270",
		"latitude": 33.7998,
		"longitude": -116.3927,
		"phone_number": "(844) 462-7342",
		"pwp_availability": true,
		"iana_timezone": "US/Pacific",
		"value_day_text": "$6.25 every Sunday & Tuesday",
		"unlimited_tier": "2"
	},
	{
		"name": "Regal Guam",
		"path_name": "regal-guam-megaplex-1645",
		"theatre_code": "1645",
		"address": "235 Pass St.",
		"city": "Tamuning",
		"state": "GU",
		"postal_code": "96911",
		"latitude": 13.484,
		"longitude": 144.7765,
		"phone_number": "(844) 462-7342",
		"pwp_availability": true,
		"iana_timezone": "Pacific/Guam",
		"value_day_text": "$5.50 every Tuesday",
		"unlimited_tier": "1"
	},
	{
		"name": "Regal Bowling Green",
		"path_name": "regal-bowling-green-1525",
		"theatre_code": "1525",
		"address": "323 Great Escape Drive",
		"city": "Bowling Green",
		"state": "KY",
		"postal_code": "42101",
		"latitude": 36.9655,
		"longitude": -86.4722,
		"phone_number": "(844) 462-7342",
		"pwp_availability": true,
		"iana_timezone": "US/Central",
		"value_day_text": "$6.50 every Tuesday",
		"unlimited_tier": "2"
	},
	{
		"name": "Regal Gallatin Valley",
		"path_name": "regal-gallatin-valley-1625",
		"theatre_code": "1625",
		"address": "2825 W. Main Street",
		"city": "Bozeman",
		"state": "MT",
		"postal_code": "59715",
		"latitude": 45.671,
		"longitude": -111.079,
		"phone_number": "(844) 462-7342",
		"pwp_availability": true,
		"iana_timezone": "US/Mountain",
		"value_day_text": "$7.00 every Tuesday",
		"unlimited_tier": "1"
	},
	{
		"name": "Regal Perimeter Pointe",
		"path_name": "regal-perimeter-pointe-1309",
		"theatre_code": "1309",
		"address": "1155 Mt. Vernon Highway",
		"city": "Atlanta",
		"state": "GA",
		"postal_code": "30338",
		"latitude": 33.9344,
		"longitude": -84.3501,
		"phone_number": "(844) 462-7342",
		"pwp_availability": true,
		"iana_timezone": "US/Eastern",
		"value_day_text": "$6.00 every Tuesday",
		"unlimited_tier": "2"
	},
	{
		"name": "Regal Hollywood - Gainesville",
		"path_name": "regal-hollywood-cinemas-gainesville-1421",
		"theatre_code": "1421",
		"address": "120 Green Hill Circle NW",
		"city": "Gainesville",
		"state": "GA",
		"postal_code": "30504",
		"latitude": 34.2952,
		"longitude": -83.8568,
		"phone_number": "(844) 462-7342",
		"pwp_availability": true,
		"iana_timezone": "US/Eastern",
		"value_day_text": "$6.50 every Tuesday",
		"unlimited_tier": "1"
	},
	{
		"name": "Regal American Mall",
		"path_name": "regal-american-mall-0680",
		"theatre_code": "0680",
		"address": "2830 West Elm Street",
		"city": "Lima",
		"state": "OH",
		"postal_code": "45805",
		"latitude": 40.7378,
		"longitude": -84.1655,
		"phone_number": "(844) 462-7342",
		"pwp_availability": true,
		"iana_timezone": "US/Eastern",
		"value_day_text": "$6.50 every Tuesday",
		"unlimited_tier": "1"
	},
	{
		"name": "Regal Riverstone",
		"path_name": "regal-riverstone-0654",
		"theatre_code": "0654",
		"address": "2416 Old Mill Loop",
		"city": "Coeur d'Alene",
		"state": "ID",
		"postal_code": "83814",
		"latitude": 47.6956,
		"longitude": -116.8088,
		"phone_number": "(844) 462-7342",
		"pwp_availability": true,
		"iana_timezone": "US/Pacific",
		"value_day_text": "$6.50 every Tuesday",
		"unlimited_tier": "2"
	},
	{
		"name": "Regal Walden Galleria",
		"path_name": "regal-walden-galleria-rpx-0675",
		"theatre_code": "0675",
		"address": "TH201 - Walden Galleria",
		"city": "Buffalo",
		"state": "NY",
		"postal_code": "14225",
		"latitude": 42.9109,
		"longitude": -78.7629,
		"phone_number": "(844) 462-7342",
		"pwp_availability": true,
		"iana_timezone": "US/Eastern",
		"value_day_text": "$6.50 every Tuesday",
		"unlimited_tier": "2"
	},
	{
		"name": "Regal Azalea Square",
		"path_name": "regal-azalea-square-rpx-1850",
		"theatre_code": "1850",
		"address": "215 Azalea Square Blvd",
		"city": "Summerville",
		"state": "SC",
		"postal_code": "29483",
		"latitude": 33.0374,
		"longitude": -80.1608,
		"phone_number": "(844) 462-7342",
		"pwp_availability": true,
		"iana_timezone": "US/Eastern",
		"value_day_text": "$6.00 every Tuesday",
		"unlimited_tier": "2"
	},
	{
		"name": "Regal Visalia",
		"path_name": "regal-visalia-1821",
		"theatre_code": "1821",
		"address": "120 S Bridge Street",
		"city": "Visalia",
		"state": "CA",
		"postal_code": "93291",
		"latitude": 36.3302,
		"longitude": -119.288,
		"phone_number": "(844) 462-7342",
		"pwp_availability": true,
		"iana_timezone": "US/Pacific",
		"value_day_text": "$5.50 every Tuesday",
		"unlimited_tier": "1"
	},
	{
		"name": "Regal Royal Park",
		"path_name": "regal-royal-park-1860",
		"theatre_code": "1860",
		"address": "3702 W. Newberry Road",
		"city": "Gainesville",
		"state": "FL",
		"postal_code": "32607",
		"latitude": 29.6539,
		"longitude": -82.3801,
		"phone_number": "(844) 462-7342",
		"pwp_availability": true,
		"iana_timezone": "US/Eastern",
		"value_day_text": "$6.50 every Tuesday",
		"unlimited_tier": "2"
	},
	{
		"name": "Regal Shiloh Crossing",
		"path_name": "regal-shiloh-crossing-0190",
		"theatre_code": "0190",
		"address": "10400 East US 36, STE 800",
		"city": "Avon",
		"state": "IN",
		"postal_code": "46123",
		"latitude": 39.7662,
		"longitude": -86.3391,
		"phone_number": "(844) 462-7342",
		"pwp_availability": true,
		"iana_timezone": "US/Eastern",
		"value_day_text": "$6.50 every Tuesday",
		"unlimited_tier": "1"
	},
	{
		"name": "Regal Edwards Long Beach",
		"path_name": "regal-edwards-long-beach-1042",
		"theatre_code": "1042",
		"address": "7501 East Carson",
		"city": "Long Beach",
		"state": "CA",
		"postal_code": "90808",
		"latitude": 33.8314,
		"longitude": -118.0878,
		"phone_number": "(844) 462-7342",
		"pwp_availability": true,
		"iana_timezone": "US/Pacific",
		"value_day_text": "$6.50 every Sunday & Tuesday",
		"unlimited_tier": "3"
	},
	{
		"name": "Regal Cinema South",
		"path_name": "regal-cinema-south-0175",
		"theatre_code": "0175",
		"address": "7420 South Ave",
		"city": "Youngstown",
		"state": "OH",
		"postal_code": "44512",
		"latitude": 41.0103,
		"longitude": -80.6345,
		"phone_number": "(844) 462-7342",
		"pwp_availability": false,
		"iana_timezone": "US/Eastern",
		"value_day_text": "$6.00 every Tuesday",
		"unlimited_tier": "1"
	},
	{
		"name": "Regal Aiken Mall",
		"path_name": "regal-aiken-mall-0252",
		"theatre_code": "0252",
		"address": "300 East Gate Drive",
		"city": "Aiken",
		"state": "SC",
		"postal_code": "29802",
		"latitude": 33.5042,
		"longitude": -81.7173,
		"phone_number": "(844) 462-7342",
		"pwp_availability": true,
		"iana_timezone": "US/Eastern",
		"value_day_text": "$6.50 every Tuesday",
		"unlimited_tier": "1"
	},
	{
		"name": "Regal South Beach",
		"path_name": "regal-south-beach-0482",
		"theatre_code": "0482",
		"address": "1120 Lincoln Road Mall",
		"city": "Miami Beach",
		"state": "FL",
		"postal_code": "33139",
		"latitude": 25.7897,
		"longitude": -80.1402,
		"phone_number": "(844) 462-7342",
		"pwp_availability": true,
		"iana_timezone": "US/Eastern",
		"value_day_text": "$6.50 every Tuesday",
		"unlimited_tier": "2"
	},
	{
		"name": "Regal Green Hills",
		"path_name": "regal-green-hills-0513",
		"theatre_code": "0513",
		"address": "3815 Greenhills Village Drive",
		"city": "Nashville",
		"state": "TN",
		"postal_code": "37215",
		"latitude": 36.1079,
		"longitude": -86.8165,
		"phone_number": "(844) 462-7342",
		"pwp_availability": true,
		"iana_timezone": "US/Central",
		"value_day_text": "$6.50 every Tuesday",
		"unlimited_tier": "3"
	},
	{
		"name": "Regal Covington",
		"path_name": "regal-covington-1620",
		"theatre_code": "1620",
		"address": "69348 Louisiana State Hwy 21",
		"city": "Covington",
		"state": "LA",
		"postal_code": "70433",
		"latitude": 30.4583,
		"longitude": -90.1399,
		"phone_number": "(844) 462-7342",
		"pwp_availability": true,
		"iana_timezone": "US/Central",
		"value_day_text": "$5.50 every Tuesday",
		"unlimited_tier": "1"
	},
	{
		"name": "Regal Pioneer Place",
		"path_name": "regal-pioneer-place-0656",
		"theatre_code": "0656",
		"address": "340 SW Morrison Street",
		"city": "Portland",
		"state": "OR",
		"postal_code": "97204",
		"latitude": 45.518,
		"longitude": -122.675,
		"phone_number": "(844) 462-7342",
		"pwp_availability": true,
		"iana_timezone": "US/Pacific",
		"value_day_text": "$6.50 every Tuesday",
		"unlimited_tier": "2"
	},
	{
		"name": "Regal Cross Keys",
		"path_name": "regal-cross-keys-0167",
		"theatre_code": "0167",
		"address": "151 American Blvd.",
		"city": "Turnersville",
		"state": "NJ",
		"postal_code": "08012",
		"latitude": 39.7227,
		"longitude": -75.0333,
		"phone_number": "(844) 462-7342",
		"pwp_availability": true,
		"iana_timezone": "US/Eastern",
		"value_day_text": "$6.50 every Tuesday",
		"unlimited_tier": "2"
	},
	{
		"name": "Regal Star",
		"path_name": "regal-star-1639",
		"theatre_code": "1639",
		"address": "4455 Dowlen Rd",
		"city": "Beaumont",
		"state": "TX",
		"postal_code": "77706",
		"latitude": 30.1222,
		"longitude": -94.1575,
		"phone_number": "(844) 462-7342",
		"pwp_availability": true,
		"iana_timezone": "US/Central",
		"value_day_text": "$5.50 every Tuesday",
		"unlimited_tier": "1"
	},
	{
		"name": "Regal Hamilton Place",
		"path_name": "regal-hamilton-place-0117",
		"theatre_code": "0117",
		"address": "2000 Hamilton Place Boulevard",
		"city": "Chattanooga",
		"state": "TN",
		"postal_code": "37421",
		"latitude": 35.0376,
		"longitude": -85.1563,
		"phone_number": "(844) 462-7342",
		"pwp_availability": false,
		"iana_timezone": "US/Eastern",
		"value_day_text": "$6.00 every Tuesday",
		"unlimited_tier": "1"
	},
	{
		"name": "Regal Manchester - Fresno",
		"path_name": "regal-manchester-fresno-1820",
		"theatre_code": "1820",
		"address": "2055 E Shields Avenue",
		"city": "Fresno",
		"state": "CA",
		"postal_code": "93726",
		"latitude": 36.7819,
		"longitude": -119.786,
		"phone_number": "(844) 462-7342",
		"pwp_availability": true,
		"iana_timezone": "US/Pacific",
		"value_day_text": "$6.50 every Tuesday",
		"unlimited_tier": "2"
	},
	{
		"name": "Regal Union Square",
		"path_name": "regal-union-square-screenx-4dx-1320",
		"theatre_code": "1320",
		"address": "850 Broadway",
		"city": "New York",
		"state": "NY",
		"postal_code": "10003",
		"latitude": 40.734,
		"longitude": -73.9912,
		"phone_number": "(844) 462-7342",
		"pwp_availability": true,
		"iana_timezone": "US/Eastern",
		"value_day_text": "$8.00 every Tuesday",
		"unlimited_tier": "3"
	},
	{
		"name": "Regal Dole Cannery",
		"path_name": "regal-dole-cannery-1828",
		"theatre_code": "1828",
		"address": "735 B Iwilei Road",
		"city": "Honolulu",
		"state": "HI",
		"postal_code": "96817",
		"latitude": 21.3191,
		"longitude": -157.8719,
		"phone_number": "(844) 462-7342",
		"pwp_availability": true,
		"iana_timezone": "US/Hawaii",
		"value_day_text": "$6.50 every Tuesday",
		"unlimited_tier": "2"
	},
	{
		"name": "Regal Harrisburg",
		"path_name": "regal-harrisburg-1748",
		"theatre_code": "1748",
		"address": "1500 Caughey Dr",
		"city": "Harrisburg",
		"state": "PA",
		"postal_code": "17112",
		"latitude": 40.31,
		"longitude": -76.8366,
		"phone_number": "(844) 462-7342",
		"pwp_availability": true,
		"iana_timezone": "US/Eastern",
		"value_day_text": "$6.50 every Tuesday",
		"unlimited_tier": "2"
	},
	{
		"name": "Regal Independence Mall",
		"path_name": "regal-independence-mall-rpx-1717",
		"theatre_code": "1717",
		"address": "101 Kingston Collection Way",
		"city": "Kingston",
		"state": "MA",
		"postal_code": "02364",
		"latitude": 41.9716,
		"longitude": -70.7175,
		"phone_number": "(844) 462-7342",
		"pwp_availability": true,
		"iana_timezone": "US/Eastern",
		"value_day_text": "$7.00 every Tuesday",
		"unlimited_tier": "2"
	},
	{
		"name": "Regal Edwards Eastvale Gateway",
		"path_name": "regal-edwards-eastvale-gateway-1916",
		"theatre_code": "1916",
		"address": "12285 Limonite Avenue",
		"city": "Eastvale",
		"state": "CA",
		"postal_code": "91752",
		"latitude": 33.977,
		"longitude": -117.5539,
		"phone_number": "(844) 462-7342",
		"pwp_availability": true,
		"iana_timezone": "US/Pacific",
		"value_day_text": "$6.50 every Tuesday",
		"unlimited_tier": "2"
	},
	{
		"name": "Regal Hollywood - St. Joseph",
		"path_name": "regal-hollywood-st-joseph-1624",
		"theatre_code": "1624",
		"address": "5405 N. Belt Hwy Bldg M",
		"city": "St Joseph",
		"state": "MO",
		"postal_code": "64506",
		"latitude": 39.8146,
		"longitude": -94.8148,
		"phone_number": "(844) 462-7342",
		"pwp_availability": true,
		"iana_timezone": "US/Central",
		"value_day_text": "$7.00 every Tuesday",
		"unlimited_tier": "1"
	},
	{
		"name": "Regal Opry Mills",
		"path_name": "regal-opry-mills-0615",
		"theatre_code": "0615",
		"address": "570 Opry Mills Drive",
		"city": "Nashville",
		"state": "TN",
		"postal_code": "37214",
		"latitude": 36.2008,
		"longitude": -86.6905,
		"phone_number": "(844) 462-7342",
		"pwp_availability": true,
		"iana_timezone": "US/Central",
		"value_day_text": "$6.50 every Tuesday",
		"unlimited_tier": "3"
	},
	{
		"name": "Regal Bartlesville",
		"path_name": "regal-bartlesville-movies-1630",
		"theatre_code": "1630",
		"address": "100  Washington Park Mall",
		"city": "Bartlesville",
		"state": "OK",
		"postal_code": "74006",
		"latitude": 36.7567,
		"longitude": -95.9353,
		"phone_number": "(844) 462-7342",
		"pwp_availability": true,
		"iana_timezone": "US/Central",
		"value_day_text": "$5.50 every Tuesday",
		"unlimited_tier": "1"
	},
	{
		"name": "Regal Barkley Village",
		"path_name": "regal-barkley-village-1671",
		"theatre_code": "1671",
		"address": "3005 Cinema Place",
		"city": "Bellingham",
		"state": "WA",
		"postal_code": "98226",
		"latitude": 48.7712,
		"longitude": -122.4465,
		"phone_number": "(844) 462-7342",
		"pwp_availability": true,
		"iana_timezone": "US/Pacific",
		"value_day_text": "$6.50 every Tuesday",
		"unlimited_tier": "2"
	},
	{
		"name": "Regal UA Olympus Pointe",
		"path_name": "regal-ua-olympus-pointe-1285",
		"theatre_code": "1285",
		"address": "520 N. Sunrise Avenue",
		"city": "Roseville",
		"state": "CA",
		"postal_code": "95661",
		"latitude": 38.7481,
		"longitude": -121.264,
		"phone_number": "(844) 462-7342",
		"pwp_availability": true,
		"iana_timezone": "US/Pacific",
		"value_day_text": "$6.00 every Tuesday",
		"unlimited_tier": "2"
	},
	{
		"name": "Regal Oakmont",
		"path_name": "regal-oakmont-0444",
		"theatre_code": "0444",
		"address": "4801 Cortez Road W",
		"city": "Bradenton",
		"state": "FL",
		"postal_code": "34210",
		"latitude": 27.4622,
		"longitude": -82.6149,
		"phone_number": "(844) 462-7342",
		"pwp_availability": true,
		"iana_timezone": "US/Eastern",
		"value_day_text": "$6.00 every Tuesday",
		"unlimited_tier": "1"
	},
	{
		"name": "Regal Bridgeport Village",
		"path_name": "regal-bridgeport-village-0652",
		"theatre_code": "0652",
		"address": "7329 SW Bridgeport Road",
		"city": "Tigard",
		"state": "OR",
		"postal_code": "97224",
		"latitude": 45.3969,
		"longitude": -122.7511,
		"phone_number": "(844) 462-7342",
		"pwp_availability": true,
		"iana_timezone": "US/Pacific",
		"value_day_text": "$6.25 every Tuesday",
		"unlimited_tier": "2"
	},
	{
		"name": "Regal UA Colorado Center",
		"path_name": "regal-ua-colorado-center-1308",
		"theatre_code": "1308",
		"address": "2000 S. Colorado Blvd, Suite C",
		"city": "Denver",
		"state": "CO",
		"postal_code": "80222",
		"latitude": 39.6803,
		"longitude": -104.9402,
		"phone_number": "(844) 462-7342",
		"pwp_availability": true,
		"iana_timezone": "US/Mountain",
		"value_day_text": "$6.00 every Tuesday",
		"unlimited_tier": "2"
	},
	{
		"name": "Regal Fox Run",
		"path_name": "regal-fox-run-rpx-1728",
		"theatre_code": "1728",
		"address": "45 Gosling Road",
		"city": "Newington",
		"state": "NH",
		"postal_code": "03801",
		"latitude": 43.0913,
		"longitude": -70.8008,
		"phone_number": "(844) 462-7342",
		"pwp_availability": true,
		"iana_timezone": "US/Eastern",
		"value_day_text": "$6.50 every Tuesday",
		"unlimited_tier": "2"
	},
	{
		"name": "Regal Westbury",
		"path_name": "regal-westbury-1273",
		"theatre_code": "1273",
		"address": "7000 Brush Hollow Road",
		"city": "Westbury",
		"state": "NY",
		"postal_code": "11590",
		"latitude": 40.7767,
		"longitude": -73.5596,
		"phone_number": "(844) 462-7342",
		"pwp_availability": false,
		"iana_timezone": "US/Eastern",
		"value_day_text": "$7.50 every Tuesday",
		"unlimited_tier": "3"
	},
	{
		"name": "Regal UA Denver Pavilions",
		"path_name": "regal-ua-denver-pavilions-rpx-1315",
		"theatre_code": "1315",
		"address": "500 16Th Street #310",
		"city": "Denver",
		"state": "CO",
		"postal_code": "80202",
		"latitude": 39.7439,
		"longitude": -104.9901,
		"phone_number": "(844) 462-7342",
		"pwp_availability": true,
		"iana_timezone": "US/Mountain",
		"value_day_text": "$6.00 every Tuesday",
		"unlimited_tier": "2"
	},
	{
		"name": "Regal UA King Of Prussia",
		"path_name": "regal-ua-king-of-prussia-1329",
		"theatre_code": "1329",
		"address": "300 Goddard Blvd",
		"city": "King Of Prussia",
		"state": "PA",
		"postal_code": "19406",
		"latitude": 40.0908,
		"longitude": -75.3866,
		"phone_number": "(844) 462-7342",
		"pwp_availability": false,
		"iana_timezone": "US/Eastern",
		"value_day_text": "$7.00 every Tuesday",
		"unlimited_tier": "2"
	},
	{
		"name": "Regal Saipan",
		"path_name": "regal-saipan-megaplex-1646",
		"theatre_code": "1646",
		"address": "2860 Costco Dr, Box 2109",
		"city": "Saipan",
		"state": "MP",
		"postal_code": "96950",
		"latitude": 15.171,
		"longitude": 145.71249,
		"phone_number": "(844) 462-7342",
		"pwp_availability": false,
		"iana_timezone": "Pacific/Guam",
		"value_day_text": "$5.50 every Tuesday",
		"unlimited_tier": "1"
	},
	{
		"name": "Regal Cinebarre Boulder",
		"path_name": "regal-cinebarre-boulder-1411",
		"theatre_code": "1411",
		"address": "1164 W. Dillon Road",
		"city": "Louisville",
		"state": "CO",
		"postal_code": "80027",
		"latitude": 39.9603,
		"longitude": -105.1676,
		"phone_number": "(844) 462-7342",
		"pwp_availability": true,
		"iana_timezone": "US/Mountain",
		"value_day_text": "$5.50 every Tuesday",
		"unlimited_tier": "1"
	},
	{
		"name": "Regal Eagle Ridge Mall",
		"path_name": "regal-eagle-ridge-mall-0466",
		"theatre_code": "0466",
		"address": "955 Eagle Ridge Drive & Hwy 27",
		"city": "Lake Wales",
		"state": "FL",
		"postal_code": "33859",
		"latitude": 27.9537,
		"longitude": -81.6111,
		"phone_number": "(844) 462-7342",
		"pwp_availability": true,
		"iana_timezone": "US/Eastern",
		"value_day_text": "$5.50 every Tuesday",
		"unlimited_tier": "1"
	},
	{
		"name": "Regal McDonough",
		"path_name": "regal-mcdonough-1519",
		"theatre_code": "1519",
		"address": "115 Foster Drive",
		"city": "McDonough",
		"state": "GA",
		"postal_code": "30253",
		"latitude": 33.4653,
		"longitude": -84.2066,
		"phone_number": "(844) 462-7342",
		"pwp_availability": true,
		"iana_timezone": "US/Eastern",
		"value_day_text": "$6.50 every Tuesday",
		"unlimited_tier": "2"
	},
	{
		"name": "Regal Hollywood - Sarasota",
		"path_name": "regal-hollywood-sarasota-0467",
		"theatre_code": "0467",
		"address": "1993 Main Street",
		"city": "Sarasota",
		"state": "FL",
		"postal_code": "34236",
		"latitude": 27.3373,
		"longitude": -82.5316,
		"phone_number": "(844) 462-7342",
		"pwp_availability": true,
		"iana_timezone": "US/Eastern",
		"value_day_text": "$6.00 every Tuesday",
		"unlimited_tier": "1"
	},
	{
		"name": "Regal UA Cortlandt Town Center",
		"path_name": "regal-ua-cortlandt-town-center-1318",
		"theatre_code": "1318",
		"address": "3131 East Main Street",
		"city": "Mohegan Lake",
		"state": "NY",
		"postal_code": "10547",
		"latitude": 41.3199,
		"longitude": -73.8573,
		"phone_number": "(844) 462-7342",
		"pwp_availability": true,
		"iana_timezone": "US/Eastern",
		"value_day_text": "$7.00 every Tuesday",
		"unlimited_tier": "3"
	},
	{
		"name": "Regal Edwards Corona Crossings",
		"path_name": "regal-edwards-corona-crossings-rpx-0665",
		"theatre_code": "0665",
		"address": "2650 Tuscany Street",
		"city": "Corona",
		"state": "CA",
		"postal_code": "92881",
		"latitude": 33.8234,
		"longitude": -117.5139,
		"phone_number": "(844) 462-7342",
		"pwp_availability": true,
		"iana_timezone": "US/Pacific",
		"value_day_text": "$5.00 every Tuesday",
		"unlimited_tier": "2"
	},
	{
		"name": "Regal Southland Mall",
		"path_name": "regal-southland-mall-0683",
		"theatre_code": "0683",
		"address": "20505 S Dixie Hwy Suite 1301",
		"city": "Miami",
		"state": "FL",
		"postal_code": "33189",
		"latitude": 25.5772,
		"longitude": -80.3689,
		"phone_number": "(844) 462-7342",
		"pwp_availability": true,
		"iana_timezone": "US/Eastern",
		"value_day_text": "$6.00 every Tuesday",
		"unlimited_tier": "2"
	},
	{
		"name": "Regal Ronkonkoma",
		"path_name": "regal-ronkonkoma-0632",
		"theatre_code": "0632",
		"address": "565 Portion Road",
		"city": "Ronkonkoma",
		"state": "NY",
		"postal_code": "11779",
		"latitude": 40.8307,
		"longitude": -73.0913,
		"phone_number": "(844) 462-7342",
		"pwp_availability": false,
		"iana_timezone": "US/Eastern",
		"value_day_text": "$7.50 every Tuesday",
		"unlimited_tier": "3"
	},
	{
		"name": "Regal Deer Park",
		"path_name": "regal-deer-park-0692",
		"theatre_code": "0692",
		"address": "1050 The Arches Circle",
		"city": "Deer Park",
		"state": "NY",
		"postal_code": "11729",
		"latitude": 40.7624,
		"longitude": -73.3095,
		"phone_number": "(844) 462-7342",
		"pwp_availability": true,
		"iana_timezone": "US/Eastern",
		"value_day_text": "$7.50 every Tuesday",
		"unlimited_tier": "3"
	},
	{
		"name": "Regal Martin Village",
		"path_name": "regal-martin-village-0673",
		"theatre_code": "0673",
		"address": "5400 East Martin Way",
		"city": "Lacey",
		"state": "WA",
		"postal_code": "98516",
		"latitude": 47.0502,
		"longitude": -122.8084,
		"phone_number": "(844) 462-7342",
		"pwp_availability": true,
		"iana_timezone": "US/Pacific",
		"value_day_text": "$6.00 every Tuesday",
		"unlimited_tier": "2"
	},
	{
		"name": "Regal Willamette Town Center",
		"path_name": "regal-willamette-town-center-0679",
		"theatre_code": "0679",
		"address": "831 Lancaster Dr NE Suite #8",
		"city": "Salem",
		"state": "OR",
		"postal_code": "97301",
		"latitude": 44.9415,
		"longitude": -122.9831,
		"phone_number": "(844) 462-7342",
		"pwp_availability": false,
		"iana_timezone": "US/Pacific",
		"value_day_text": "$6.25 every Tuesday",
		"unlimited_tier": "2"
	},
	{
		"name": "Regal La Habra",
		"path_name": "regal-la-habra-0704",
		"theatre_code": "0704",
		"address": "1351 W. Imperial Hwy",
		"city": "La Habra",
		"state": "CA",
		"postal_code": "90631",
		"latitude": 33.917,
		"longitude": -117.9608,
		"phone_number": "(844) 462-7342",
		"pwp_availability": false,
		"iana_timezone": "US/Pacific",
		"value_day_text": "$6.00 every Tuesday",
		"unlimited_tier": "2"
	},
	{
		"name": "Regal Keauhou",
		"path_name": "regal-keauhou-1830",
		"theatre_code": "1830",
		"address": "78-6831 Ali'l Drive Suite 342",
		"city": "Keauhou-Kona",
		"state": "HI",
		"postal_code": "96740",
		"latitude": 19.5767,
		"longitude": -155.9687,
		"phone_number": "(844) 462-7342",
		"pwp_availability": true,
		"iana_timezone": "US/Hawaii",
		"value_day_text": "$6.50 every Tuesday",
		"unlimited_tier": "2"
	},
	{
		"name": "Regal Stockton Holiday",
		"path_name": "regal-stockton-holiday-cinema-1816",
		"theatre_code": "1816",
		"address": "6262 N West Lane",
		"city": "Stockton",
		"state": "CA",
		"postal_code": "95210",
		"latitude": 38.0121,
		"longitude": -121.2937,
		"phone_number": "(844) 462-7342",
		"pwp_availability": true,
		"iana_timezone": "US/Pacific",
		"value_day_text": "$5.50 every Tuesday",
		"unlimited_tier": "1"
	},
	{
		"name": "Regal Webster Place",
		"path_name": "regal-webster-place-1793",
		"theatre_code": "1793",
		"address": "1471 W. Webster Avenue",
		"city": "Chicago",
		"state": "IL",
		"postal_code": "60614",
		"latitude": 41.9215,
		"longitude": -87.6656,
		"phone_number": "(844) 462-7342",
		"pwp_availability": false,
		"iana_timezone": "US/Central",
		"value_day_text": "$7.00 every Tuesday",
		"unlimited_tier": "2"
	},
	{
		"name": "Regal Hollywood - Ocala",
		"path_name": "regal-hollywood-ocala-0483",
		"theatre_code": "0483",
		"address": "2801 SW 27th Avenue",
		"city": "Ocala",
		"state": "FL",
		"postal_code": "34474",
		"latitude": 29.1597,
		"longitude": -82.1689,
		"phone_number": "(844) 462-7342",
		"pwp_availability": true,
		"iana_timezone": "US/Eastern",
		"value_day_text": "$6.00 every Tuesday",
		"unlimited_tier": "1"
	},
	{
		"name": "Regal Boulevard Centre",
		"path_name": "regal-boulevard-centre-0183",
		"theatre_code": "0183",
		"address": "24 Boulevard Centre",
		"city": "Niles",
		"state": "OH",
		"postal_code": "44446",
		"latitude": 41.2109,
		"longitude": -80.7526,
		"phone_number": "(844) 462-7342",
		"pwp_availability": true,
		"iana_timezone": "US/Eastern",
		"value_day_text": "$6.00 every Tuesday",
		"unlimited_tier": "1"
	},
	{
		"name": "Regal Lansing Mall",
		"path_name": "regal-lansing-mall-rpx-0596",
		"theatre_code": "0596",
		"address": "5330 West Saginaw Highway",
		"city": "Lansing",
		"state": "MI",
		"postal_code": "48917",
		"latitude": 42.7433,
		"longitude": -84.629,
		"phone_number": "(844) 462-7342",
		"pwp_availability": true,
		"iana_timezone": "US/Eastern",
		"value_day_text": "$5.00 every Tuesday",
		"unlimited_tier": "1"
	},
	{
		"name": "Regal Red Rock",
		"path_name": "regal-red-rock-0659",
		"theatre_code": "0659",
		"address": "11011 West Charleston Blvd",
		"city": "Las Vegas",
		"state": "NV",
		"postal_code": "89135",
		"latitude": 36.1566,
		"longitude": -115.3333,
		"phone_number": "(844) 462-7342",
		"pwp_availability": true,
		"iana_timezone": "US/Pacific",
		"value_day_text": "$7.00 every Tuesday",
		"unlimited_tier": "2"
	},
	{
		"name": "Regal Salisbury",
		"path_name": "regal-salisbury-rpx-0674",
		"theatre_code": "0674",
		"address": "2322 North Salisbury Blvd",
		"city": "Salisbury",
		"state": "MD",
		"postal_code": "21801",
		"latitude": 38.389,
		"longitude": -75.578,
		"phone_number": "(844) 462-7342",
		"pwp_availability": true,
		"iana_timezone": "US/Eastern",
		"value_day_text": "$7.50 every Tuesday",
		"unlimited_tier": "3"
	},
	{
		"name": "Regal Virginia Center",
		"path_name": "regal-virginia-center-0165",
		"theatre_code": "0165",
		"address": "10091 Jeb Stuart Parkway",
		"city": "Glen Allen",
		"state": "VA",
		"postal_code": "23060",
		"latitude": 37.665,
		"longitude": -77.4585,
		"phone_number": "(844) 462-7342",
		"pwp_availability": true,
		"iana_timezone": "US/Eastern",
		"value_day_text": "$6.50 every Tuesday",
		"unlimited_tier": "2"
	},
	{
		"name": "Regal Crystal Lake Showplace",
		"path_name": "regal-crystal-lake-showplace-0621",
		"theatre_code": "0621",
		"address": "5000 W. Route 14",
		"city": "Crystal Lake",
		"state": "IL",
		"postal_code": "60014",
		"latitude": 42.2278,
		"longitude": -88.2946,
		"phone_number": "(844) 462-7342",
		"pwp_availability": true,
		"iana_timezone": "US/Central",
		"value_day_text": "$5.00 every Tuesday",
		"unlimited_tier": "2"
	},
	{
		"name": "Regal Independence",
		"path_name": "regal-independence-0238",
		"theatre_code": "0238",
		"address": "1210 Independence Ave.",
		"city": "Akron",
		"state": "OH",
		"postal_code": "44310",
		"latitude": 41.1109,
		"longitude": -81.4708,
		"phone_number": "(844) 462-7342",
		"pwp_availability": false,
		"iana_timezone": "US/Eastern",
		"value_day_text": "$6.00 every Tuesday",
		"unlimited_tier": "1"
	},
	{
		"name": "Regal Stockton City Center",
		"path_name": "regal-stockton-city-center-1817",
		"theatre_code": "1817",
		"address": "222 N El Dorado Street",
		"city": "Stockton",
		"state": "CA",
		"postal_code": "95202",
		"latitude": 37.955,
		"longitude": -121.2897,
		"phone_number": "(844) 462-7342",
		"pwp_availability": true,
		"iana_timezone": "US/Pacific",
		"value_day_text": "$6.50 every Tuesday",
		"unlimited_tier": "2"
	},
	{
		"name": "Regal East Greenbush",
		"path_name": "regal-east-greenbush-1738",
		"theatre_code": "1738",
		"address": "279 Troy Rd",
		"city": "Rensselaer",
		"state": "NY",
		"postal_code": "12144",
		"latitude": 42.6335,
		"longitude": -73.7018,
		"phone_number": "(844) 462-7342",
		"pwp_availability": true,
		"iana_timezone": "US/Eastern",
		"value_day_text": "$7.00 every Tuesday",
		"unlimited_tier": "3"
	},
	{
		"name": "Regal Fox Theater",
		"path_name": "regal-fox-theater-1655",
		"theatre_code": "1655",
		"address": "505 S 20th St",
		"city": "Laramie",
		"state": "WY",
		"postal_code": "82070",
		"latitude": 41.3107,
		"longitude": -105.5904,
		"phone_number": "(844) 462-7342",
		"pwp_availability": true,
		"iana_timezone": "US/Mountain",
		"value_day_text": "$5.50 every Tuesday",
		"unlimited_tier": "1"
	},
	{
		"name": "Regal Augusta",
		"path_name": "regal-augusta-1704",
		"theatre_code": "1704",
		"address": "23 Market Place Dr",
		"city": "Augusta",
		"state": "ME",
		"postal_code": "04330",
		"latitude": 44.3419,
		"longitude": -69.7907,
		"phone_number": "(844) 462-7342",
		"pwp_availability": false,
		"iana_timezone": "US/Eastern",
		"value_day_text": "$7.00 every Tuesday",
		"unlimited_tier": "2"
	},
	{
		"name": "Regal Fairfax Towne Center",
		"path_name": "regal-fairfax-towne-center-1275",
		"theatre_code": "1275",
		"address": "4110 West Ox Rd, Suite 12110",
		"city": "Fairfax",
		"state": "VA",
		"postal_code": "22033",
		"latitude": 38.865,
		"longitude": -77.3679,
		"phone_number": "(844) 462-7342",
		"pwp_availability": true,
		"iana_timezone": "US/Eastern",
		"value_day_text": "$6.50 every Tuesday",
		"unlimited_tier": "2"
	},
	{
		"name": "Regal Bellingham",
		"path_name": "regal-bellingham-1713",
		"theatre_code": "1713",
		"address": "259 Hartford Ave",
		"city": "Bellingham",
		"state": "MA",
		"postal_code": "02019",
		"latitude": 42.1143,
		"longitude": -71.4733,
		"phone_number": "(844) 462-7342",
		"pwp_availability": true,
		"iana_timezone": "US/Eastern",
		"value_day_text": "$7.00 every Tuesday",
		"unlimited_tier": "3"
	},
	{
		"name": "Regal Quaker Crossing",
		"path_name": "regal-quaker-crossing-0700",
		"theatre_code": "0700",
		"address": "3450 Amelia Drive",
		"city": "Orchard Park",
		"state": "NY",
		"postal_code": "14127",
		"latitude": 42.7892,
		"longitude": -78.7741,
		"phone_number": "(844) 462-7342",
		"pwp_availability": true,
		"iana_timezone": "US/Eastern",
		"value_day_text": "$6.50 every Tuesday",
		"unlimited_tier": "2"
	},
	{
		"name": "Regal Pinnacle",
		"path_name": "regal-pinnacle-0682",
		"theatre_code": "0682",
		"address": "11240 Parkside Drive",
		"city": "Knoxville",
		"state": "TN",
		"postal_code": "37922",
		"latitude": 35.90011,
		"longitude": -84.15576,
		"phone_number": "(844) 462-7342",
		"pwp_availability": true,
		"iana_timezone": "US/Eastern",
		"value_day_text": "$6.00 every Tuesday",
		"unlimited_tier": "1"
	},
	{
		"name": "Regal Tall Firs",
		"path_name": "regal-tall-firs-0330",
		"theatre_code": "0330",
		"address": "20751 State Route 410 E",
		"city": "Bonneylake",
		"state": "WA",
		"postal_code": "98390",
		"latitude": 47.1684,
		"longitude": -122.1516,
		"phone_number": "(844) 462-7342",
		"pwp_availability": true,
		"iana_timezone": "US/Pacific",
		"value_day_text": "$6.25 every Tuesday",
		"unlimited_tier": "2"
	},
	{
		"name": "Regal Riverside Plaza",
		"path_name": "regal-riverside-plaza-1806",
		"theatre_code": "1806",
		"address": "3535 Riverside Plaza Drive",
		"city": "Riverside",
		"state": "CA",
		"postal_code": "92506",
		"latitude": 33.955,
		"longitude": -117.3877,
		"phone_number": "(844) 462-7342",
		"pwp_availability": true,
		"iana_timezone": "US/Pacific",
		"value_day_text": "$6.00 every Tuesday",
		"unlimited_tier": "3"
	},
	{
		"name": "Regal Columbia",
		"path_name": "regal-columbia-rpx-1621",
		"theatre_code": "1621",
		"address": "2800 Goodwin Point",
		"city": "Columbia",
		"state": "MO",
		"postal_code": "65201",
		"latitude": 38.9211,
		"longitude": -92.2989,
		"phone_number": "(844) 462-7342",
		"pwp_availability": true,
		"iana_timezone": "US/Central",
		"value_day_text": "$6.00 every Tuesday",
		"unlimited_tier": "1"
	},
	{
		"name": "Regal Concord",
		"path_name": "regal-concord-1725",
		"theatre_code": "1725",
		"address": "282 Louden Rd",
		"city": "Concord",
		"state": "NH",
		"postal_code": "03301",
		"latitude": 43.2246,
		"longitude": -71.4894,
		"phone_number": "(844) 462-7342",
		"pwp_availability": true,
		"iana_timezone": "US/Eastern",
		"value_day_text": "$5.95 every Tuesday",
		"unlimited_tier": "2"
	},
	{
		"name": "Regal Wilder",
		"path_name": "regal-wilder-1526",
		"theatre_code": "1526",
		"address": "103 Crossing Drive",
		"city": "Wilder",
		"state": "KY",
		"postal_code": "41076",
		"latitude": 39.024,
		"longitude": -84.448,
		"phone_number": "(844) 462-7342",
		"pwp_availability": true,
		"iana_timezone": "US/Eastern",
		"value_day_text": "$6.00 every Tuesday",
		"unlimited_tier": "1"
	},
	{
		"name": "Regal Binghamton",
		"path_name": "regal-binghamton-1732",
		"theatre_code": "1732",
		"address": "900 Front St",
		"city": "Binghamton",
		"state": "NY",
		"postal_code": "13905",
		"latitude": 42.1339,
		"longitude": -75.9055,
		"phone_number": "(844) 462-7342",
		"pwp_availability": true,
		"iana_timezone": "US/Eastern",
		"value_day_text": "$6.50 every Tuesday",
		"unlimited_tier": "2"
	},
	{
		"name": "Regal Hacienda Crossings",
		"path_name": "regal-hacienda-crossings-0347",
		"theatre_code": "0347",
		"address": "5000 Dublin Blvd",
		"city": "Dublin",
		"state": "CA",
		"postal_code": "94568",
		"latitude": 37.705,
		"longitude": -121.886,
		"phone_number": "(844) 462-7342",
		"pwp_availability": true,
		"iana_timezone": "US/Pacific",
		"value_day_text": "$6.50 every Tuesday",
		"unlimited_tier": "3"
	},
	{
		"name": "Regal Everett",
		"path_name": "regal-everett-rpx-0663",
		"theatre_code": "0663",
		"address": "1402 Everett Mall Way #133",
		"city": "Everett",
		"state": "WA",
		"postal_code": "98208",
		"latitude": 47.9089,
		"longitude": -122.2136,
		"phone_number": "(844) 462-7342",
		"pwp_availability": true,
		"iana_timezone": "US/Pacific",
		"value_day_text": "$7.00 every Tuesday",
		"unlimited_tier": "2"
	},
	{
		"name": "Regal Mall Of Georgia",
		"path_name": "regal-mall-of-georgia-0701",
		"theatre_code": "0701",
		"address": "3333 Buford Drive, Suite 3000",
		"city": "Buford",
		"state": "GA",
		"postal_code": "30519",
		"latitude": 34.0665,
		"longitude": -83.9834,
		"phone_number": "(844) 462-7342",
		"pwp_availability": true,
		"iana_timezone": "US/Eastern",
		"value_day_text": "$6.00 every Tuesday",
		"unlimited_tier": "2"
	},
	{
		"name": "Regal UA Laguna Village",
		"path_name": "regal-ua-laguna-village-1286",
		"theatre_code": "1286",
		"address": "8755 Center Parkway Drive",
		"city": "Sacramento",
		"state": "CA",
		"postal_code": "95823",
		"latitude": 38.4384,
		"longitude": -121.4205,
		"phone_number": "(844) 462-7342",
		"pwp_availability": true,
		"iana_timezone": "US/Pacific",
		"value_day_text": "$6.50 every Tuesday",
		"unlimited_tier": "2"
	},
	{
		"name": "Regal Broward",
		"path_name": "regal-broward-rpx-1762",
		"theatre_code": "1762",
		"address": "8000 West Broward Blvd. #1840",
		"city": "Plantation",
		"state": "FL",
		"postal_code": "33324",
		"latitude": 26.1162,
		"longitude": -80.2539,
		"phone_number": "(844) 462-7342",
		"pwp_availability": true,
		"iana_timezone": "US/Eastern",
		"value_day_text": "$5.50 every Tuesday",
		"unlimited_tier": "1"
	},
	{
		"name": "Regal Valley View Grande",
		"path_name": "regal-valley-view-grande-1867",
		"theatre_code": "1867",
		"address": "4730 Valley View Boulevard",
		"city": "Roanoke",
		"state": "VA",
		"postal_code": "24012",
		"latitude": 37.3087,
		"longitude": -79.9627,
		"phone_number": "(844) 462-7342",
		"pwp_availability": true,
		"iana_timezone": "US/Eastern",
		"value_day_text": "$6.00 every Tuesday",
		"unlimited_tier": "2"
	},
	{
		"name": "Regal Bolingbrook",
		"path_name": "regal-bolingbrook-1787",
		"theatre_code": "1787",
		"address": "1221 W. Boughton Road",
		"city": "Bolingbrook",
		"state": "IL",
		"postal_code": "60440",
		"latitude": 41.7034,
		"longitude": -88.1208,
		"phone_number": "(844) 462-7342",
		"pwp_availability": true,
		"iana_timezone": "US/Central",
		"value_day_text": "$6.00 every Tuesday",
		"unlimited_tier": "2"
	},
	{
		"name": "Regal UA Cinema 90",
		"path_name": "regal-ua-cinema-90-1214",
		"theatre_code": "1214",
		"address": "2830 Highway 90 West",
		"city": "Lake City",
		"state": "FL",
		"postal_code": "32055",
		"latitude": 30.18,
		"longitude": -82.6805,
		"phone_number": "(844) 462-7342",
		"pwp_availability": false,
		"iana_timezone": "US/Eastern",
		"value_day_text": "$6.50 every Tuesday",
		"unlimited_tier": "1"
	},
	{
		"name": "Regal Gulf Coast",
		"path_name": "regal-gulf-coast-0684",
		"theatre_code": "0684",
		"address": "10028 Gulf Center Drive",
		"city": "Fort Myers",
		"state": "FL",
		"postal_code": "33913",
		"latitude": 26.4852,
		"longitude": -81.788,
		"phone_number": "(844) 462-7342",
		"pwp_availability": true,
		"iana_timezone": "US/Eastern",
		"value_day_text": "$6.00 every Tuesday",
		"unlimited_tier": "2"
	},
	{
		"name": "Regal Waugh Chapel",
		"path_name": "regal-waugh-chapel-0542",
		"theatre_code": "0542",
		"address": "1419 S. Main Chapel Way",
		"city": "Gambrills",
		"state": "MD",
		"postal_code": "21054",
		"latitude": 39.0377,
		"longitude": -76.6798,
		"phone_number": "(844) 462-7342",
		"pwp_availability": false,
		"iana_timezone": "US/Eastern",
		"value_day_text": "$7.00 every Tuesday",
		"unlimited_tier": "2"
	},
	{
		"name": "Regal Gilbert",
		"path_name": "regal-gilbert-1606",
		"theatre_code": "1606",
		"address": "1012 S. Gilbert Rd.",
		"city": "Gilbert",
		"state": "AZ",
		"postal_code": "85296",
		"latitude": 33.3293,
		"longitude": -111.79,
		"phone_number": "(844) 462-7342",
		"pwp_availability": true,
		"iana_timezone": "US/Arizona",
		"value_day_text": "$5.50 every Tuesday",
		"unlimited_tier": "1"
	},
	{
		"name": "Regal Hadley",
		"path_name": "regal-hadley-theatre-0370",
		"theatre_code": "0370",
		"address": "1000 Corporate CT",
		"city": "South Plainfield",
		"state": "NJ",
		"postal_code": "07080",
		"latitude": 40.5499,
		"longitude": -74.4241,
		"phone_number": "(844) 462-7342",
		"pwp_availability": true,
		"iana_timezone": "US/Eastern",
		"value_day_text": "$6.50 every Tuesday",
		"unlimited_tier": "2"
	},
	{
		"name": "Regal Palladium",
		"path_name": "regal-palladium-1870",
		"theatre_code": "1870",
		"address": "5830 Samet Drive",
		"city": "High Point",
		"state": "NC",
		"postal_code": "27265",
		"latitude": 36.03,
		"longitude": -79.96,
		"phone_number": "(844) 462-7342",
		"pwp_availability": true,
		"iana_timezone": "US/Eastern",
		"value_day_text": "$6.50 every Tuesday",
		"unlimited_tier": "1"
	},
	{
		"name": "Regal Fox Tower",
		"path_name": "regal-fox-tower-0633",
		"theatre_code": "0633",
		"address": "846 S.W. Park Ave",
		"city": "Portland",
		"state": "OR",
		"postal_code": "97205",
		"latitude": 45.5186,
		"longitude": -122.6811,
		"phone_number": "(844) 462-7342",
		"pwp_availability": true,
		"iana_timezone": "US/Pacific",
		"value_day_text": "$6.50 every Tuesday",
		"unlimited_tier": "2"
	},
	{
		"name": "Regal Palmetto Grande",
		"path_name": "regal-palmetto-grande-1884",
		"theatre_code": "1884",
		"address": "1319 Theatre Drive",
		"city": "Mount Pleasant",
		"state": "SC",
		"postal_code": "29464",
		"latitude": 32.8245,
		"longitude": -79.8388,
		"phone_number": "(844) 462-7342",
		"pwp_availability": true,
		"iana_timezone": "US/Eastern",
		"value_day_text": "$6.50 every Tuesday",
		"unlimited_tier": "2"
	},
	{
		"name": "Regal UA Hampton Bays",
		"path_name": "regal-ua-hampton-bays-1313",
		"theatre_code": "1313",
		"address": "119 W. Montauk Highway",
		"city": "Hampton Bays",
		"state": "NY",
		"postal_code": "11946",
		"latitude": 40.8624,
		"longitude": -72.5602,
		"phone_number": "(844) 462-7342",
		"pwp_availability": false,
		"iana_timezone": "US/Eastern",
		"value_day_text": "$7.50 every Tuesday",
		"unlimited_tier": "3"
	},
	{
		"name": "Regal Hollywood - Port Richey",
		"path_name": "regal-hollywood-port-richey-0418",
		"theatre_code": "0418",
		"address": "6701 Cinema Drive (34668)",
		"city": "Port Richey",
		"state": "FL",
		"postal_code": "34668",
		"latitude": 28.3062,
		"longitude": -82.7052,
		"phone_number": "(844) 462-7342",
		"pwp_availability": true,
		"iana_timezone": "US/Eastern",
		"value_day_text": "$6.50 every Tuesday",
		"unlimited_tier": "1"
	},
	{
		"name": "Regal Lynbrook",
		"path_name": "regal-lynbrook-rpx-1348",
		"theatre_code": "1348",
		"address": "321 Merrick Road",
		"city": "Lynbrook",
		"state": "NY",
		"postal_code": "11563",
		"latitude": 40.6573,
		"longitude": -73.6716,
		"phone_number": "(844) 462-7342",
		"pwp_availability": false,
		"iana_timezone": "US/Eastern",
		"value_day_text": "$7.50 every Tuesday",
		"unlimited_tier": "3"
	},
	{
		"name": "Regal Edgmont Square",
		"path_name": "regal-edgmont-square-0232",
		"theatre_code": "0232",
		"address": "4777 W Chester Pike",
		"city": "Newtown Square",
		"state": "PA",
		"postal_code": "19073",
		"latitude": 39.9753,
		"longitude": -75.4405,
		"phone_number": "(844) 462-7342",
		"pwp_availability": true,
		"iana_timezone": "US/Eastern",
		"value_day_text": "$6.50 every Tuesday",
		"unlimited_tier": "2"
	},
	{
		"name": "Regal Pohatcong",
		"path_name": "regal-pohatcong-0378",
		"theatre_code": "0378",
		"address": "1246 US Highway 22",
		"city": "Phillipsburg",
		"state": "NJ",
		"postal_code": "08865",
		"latitude": 40.678,
		"longitude": -75.1472,
		"phone_number": "(844) 462-7342",
		"pwp_availability": true,
		"iana_timezone": "US/Eastern",
		"value_day_text": "$6.50 every Tuesday",
		"unlimited_tier": "2"
	},
	{
		"name": "Regal Edwards Houston Marq'E",
		"path_name": "regal-edwards-houston-marqe-1052",
		"theatre_code": "1052",
		"address": "7600 Katy Freeway",
		"city": "Houston",
		"state": "TX",
		"postal_code": "77024",
		"latitude": 29.7842,
		"longitude": -95.4783,
		"phone_number": "(844) 462-7342",
		"pwp_availability": true,
		"iana_timezone": "US/Central",
		"value_day_text": "$6.00 every Tuesday",
		"unlimited_tier": "2"
	},
	{
		"name": "Regal UA Sheepshead Bay",
		"path_name": "regal-ua-sheepshead-bay-1159",
		"theatre_code": "1159",
		"address": "3907 Shore Pkwy",
		"city": "Brooklyn",
		"state": "NY",
		"postal_code": "11235",
		"latitude": 40.5858,
		"longitude": -73.931,
		"phone_number": "(844) 462-7342",
		"pwp_availability": true,
		"iana_timezone": "US/Eastern",
		"value_day_text": "$7.00 every Tuesday",
		"unlimited_tier": "3"
	},
	{
		"name": "Regal Greenwood Mall",
		"path_name": "regal-greenwood-mall-1581",
		"theatre_code": "1581",
		"address": "2625 Scottsville Rd.",
		"city": "Bowling Green",
		"state": "KY",
		"postal_code": "42103",
		"latitude": 36.9415,
		"longitude": -86.4214,
		"phone_number": "(844) 462-7342",
		"pwp_availability": true,
		"iana_timezone": "US/Central",
		"value_day_text": "$6.50 every Tuesday",
		"unlimited_tier": "2"
	},
	{
		"name": "Regal Majestic",
		"path_name": "regal-majestic-1862",
		"theatre_code": "1862",
		"address": "900 Ellsworth Drive",
		"city": "Silver Spring",
		"state": "MD",
		"postal_code": "20910",
		"latitude": 38.999,
		"longitude": -77.0265,
		"phone_number": "(844) 462-7342",
		"pwp_availability": true,
		"iana_timezone": "US/Eastern",
		"value_day_text": "$7.00 every Tuesday",
		"unlimited_tier": "2"
	},
	{
		"name": "Regal Cape Cod Mall",
		"path_name": "regal-cape-cod-mall-1715",
		"theatre_code": "1715",
		"address": "793 Iyannough Road",
		"city": "Hyannis",
		"state": "MA",
		"postal_code": "02601",
		"latitude": 41.669,
		"longitude": -70.2961,
		"phone_number": "(844) 462-7342",
		"pwp_availability": false,
		"iana_timezone": "US/Eastern",
		"value_day_text": "$6.50 every Tuesday",
		"unlimited_tier": "2"
	},
	{
		"name": "Regal Downingtown",
		"path_name": "regal-downingtown-0385",
		"theatre_code": "0385",
		"address": "100 Quarry Road",
		"city": "Downingtown",
		"state": "PA",
		"postal_code": "19335",
		"latitude": 40.0132,
		"longitude": -75.677,
		"phone_number": "(844) 462-7342",
		"pwp_availability": true,
		"iana_timezone": "US/Eastern",
		"value_day_text": "$6.75 every Tuesday",
		"unlimited_tier": "2"
	},
	{
		"name": "Regal Valley River Center",
		"path_name": "regal-valley-river-center-0670",
		"theatre_code": "0670",
		"address": "500 Valley River Center",
		"city": "Eugene",
		"state": "OR",
		"postal_code": "97401",
		"latitude": 44.0686,
		"longitude": -123.1053,
		"phone_number": "(844) 462-7342",
		"pwp_availability": true,
		"iana_timezone": "US/Pacific",
		"value_day_text": "$5.00 every Tuesday",
		"unlimited_tier": "1"
	},
	{
		"name": "Regal Arbor Place",
		"path_name": "regal-arbor-place-0392",
		"theatre_code": "0392",
		"address": "6600 Douglas Blvd.",
		"city": "Douglasville",
		"state": "GA",
		"postal_code": "30135",
		"latitude": 33.7215,
		"longitude": -84.7748,
		"phone_number": "(844) 462-7342",
		"pwp_availability": true,
		"iana_timezone": "US/Eastern",
		"value_day_text": "$6.00 every Tuesday",
		"unlimited_tier": "2"
	},
	{
		"name": "Regal Laurel Towne Centre",
		"path_name": "regal-laurel-towne-centre-0563",
		"theatre_code": "0563",
		"address": "14716 Baltimore Ave",
		"city": "Laurel",
		"state": "MD",
		"postal_code": "20707",
		"latitude": 39.0945,
		"longitude": -76.8583,
		"phone_number": "(844) 462-7342",
		"pwp_availability": true,
		"iana_timezone": "US/Eastern",
		"value_day_text": "$7.25 every Tuesday",
		"unlimited_tier": "2"
	},
	{
		"name": "Regal MGM Springfield",
		"path_name": "regal-mgm-springfield-1467",
		"theatre_code": "1467",
		"address": "1 MGM Way",
		"city": "Springfield",
		"state": "MA",
		"postal_code": "01103",
		"latitude": 42.0989,
		"longitude": -72.5864,
		"phone_number": "(844) 462-7342",
		"pwp_availability": false,
		"iana_timezone": "US/Eastern",
		"value_day_text": "$6.50 every Tuesday",
		"unlimited_tier": "2"
	},
	{
		"name": "Regal Regency Panama City",
		"path_name": "regal-regency-panama-city-1859",
		"theatre_code": "1859",
		"address": "1515 W. 23rd St.",
		"city": "Panama City",
		"state": "FL",
		"postal_code": "32406",
		"latitude": 30.1894,
		"longitude": -85.6848,
		"phone_number": "(844) 462-7342",
		"pwp_availability": false,
		"iana_timezone": "US/Central",
		"value_day_text": "$6.50 every Tuesday",
		"unlimited_tier": "2"
	},
	{
		"name": "Regal Oakwood",
		"path_name": "regal-oakwood-0463",
		"theatre_code": "0463",
		"address": "2800 Oakwood Blvd",
		"city": "Hollywood",
		"state": "FL",
		"postal_code": "33020",
		"latitude": 26.0345,
		"longitude": -80.1604,
		"phone_number": "(844) 462-7342",
		"pwp_availability": true,
		"iana_timezone": "US/Eastern",
		"value_day_text": "$6.00 every Tuesday",
		"unlimited_tier": "2"
	},
	{
		"name": "Regal Nanuet",
		"path_name": "regal-nanuet-rpx-0558",
		"theatre_code": "0558",
		"address": "6201 Fashion Drive",
		"city": "Nanuet",
		"state": "NY",
		"postal_code": "10954",
		"latitude": 41.0969,
		"longitude": -74.0129,
		"phone_number": "(844) 462-7342",
		"pwp_availability": true,
		"iana_timezone": "US/Eastern",
		"value_day_text": "$6.50 every Tuesday",
		"unlimited_tier": "3"
	},
	{
		"name": "Regal Oviedo Mall",
		"path_name": "regal-oviedo-mall-0380",
		"theatre_code": "0380",
		"address": "1500 Oviedo Marketplace Blvd",
		"city": "Oviedo",
		"state": "FL",
		"postal_code": "32765",
		"latitude": 28.6551,
		"longitude": -81.2345,
		"phone_number": "(844) 462-7342",
		"pwp_availability": true,
		"iana_timezone": "US/Eastern",
		"value_day_text": "$6.50 every Tuesday",
		"unlimited_tier": "2"
	},
	{
		"name": "Regal Edwards Santa Maria & RPX",
		"path_name": "regal-edwards-santa-maria-rpx-1681",
		"theatre_code": "1681",
		"address": "100 Town Center East",
		"city": "Santa Maria",
		"state": "CA",
		"postal_code": "93454",
		"latitude": 34.9512,
		"longitude": -120.4343,
		"phone_number": "(844) 462-7342",
		"pwp_availability": true,
		"iana_timezone": "US/Pacific",
		"value_day_text": "$6.50 every Tuesday",
		"unlimited_tier": "2"
	},
	{
		"name": "Regal Louisiana Boardwalk",
		"path_name": "regal-louisiana-boardwalk-0664",
		"theatre_code": "0664",
		"address": "2 River Colony Drive",
		"city": "Bossier City",
		"state": "LA",
		"postal_code": "71111",
		"latitude": 32.5158,
		"longitude": -93.7368,
		"phone_number": "(844) 462-7342",
		"pwp_availability": true,
		"iana_timezone": "US/Central",
		"value_day_text": "$5.50 every Tuesday",
		"unlimited_tier": "1"
	},
	{
		"name": "Regal Germantown",
		"path_name": "regal-germantown-1710",
		"theatre_code": "1710",
		"address": "20000 Century Blvd",
		"city": "Germantown",
		"state": "MD",
		"postal_code": "20874",
		"latitude": 39.1829,
		"longitude": -77.2628,
		"phone_number": "(844) 462-7342",
		"pwp_availability": true,
		"iana_timezone": "US/Eastern",
		"value_day_text": "$7.00 every Tuesday",
		"unlimited_tier": "2"
	},
	{
		"name": "Regal Avalon",
		"path_name": "regal-avalon-1694",
		"theatre_code": "1694",
		"address": "3950 1st Street",
		"city": "Alpharetta",
		"state": "GA",
		"postal_code": "30009",
		"latitude": 34.0718,
		"longitude": -84.2765,
		"phone_number": "(844) 462-7342",
		"pwp_availability": true,
		"iana_timezone": "US/Eastern",
		"value_day_text": "$7.00 every Tuesday",
		"unlimited_tier": "2"
	},
	{
		"name": "Regal Morgantown",
		"path_name": "regal-morgantown-1644",
		"theatre_code": "1644",
		"address": "1001 Mountaineer Dr",
		"city": "Morgantown",
		"state": "WV",
		"postal_code": "26501",
		"latitude": 39.6554,
		"longitude": -80.0033,
		"phone_number": "(844) 462-7342",
		"pwp_availability": true,
		"iana_timezone": "US/Eastern",
		"value_day_text": "$6.00 every Tuesday",
		"unlimited_tier": "1"
	},
	{
		"name": "Regal Burlington",
		"path_name": "regal-burlington-0198",
		"theatre_code": "0198",
		"address": "250 Bromley Boulevard",
		"city": "Burlington",
		"state": "NJ",
		"postal_code": "08016",
		"latitude": 40.0397,
		"longitude": -74.8205,
		"phone_number": "(844) 462-7342",
		"pwp_availability": true,
		"iana_timezone": "US/Eastern",
		"value_day_text": "$6.50 every Tuesday",
		"unlimited_tier": "2"
	},
	{
		"name": "Regal Green Valley Ranch",
		"path_name": "regal-green-valley-ranch-0637",
		"theatre_code": "0637",
		"address": "2300 Paseo Verde",
		"city": "Henderson",
		"state": "NV",
		"postal_code": "89052",
		"latitude": 36.0218,
		"longitude": -115.0811,
		"phone_number": "(844) 462-7342",
		"pwp_availability": true,
		"iana_timezone": "US/Pacific",
		"value_day_text": "$6.00 every Tuesday",
		"unlimited_tier": "2"
	},
	{
		"name": "Regal Royal Palm Beach",
		"path_name": "regal-royal-palm-beach-rpx-0351",
		"theatre_code": "0351",
		"address": "1003 State Road 7",
		"city": "Royal Palm Beach",
		"state": "FL",
		"postal_code": "33411",
		"latitude": 26.6943,
		"longitude": -80.2019,
		"phone_number": "(844) 462-7342",
		"pwp_availability": true,
		"iana_timezone": "US/Eastern",
		"value_day_text": "$6.50 every Tuesday",
		"unlimited_tier": "2"
	},
	{
		"name": "Regal Lake Zurich",
		"path_name": "regal-lake-zurich-0620",
		"theatre_code": "0620",
		"address": "755 S. Rand Road",
		"city": "Lake Zurich",
		"state": "IL",
		"postal_code": "60047",
		"latitude": 42.1825,
		"longitude": -88.0833,
		"phone_number": "(844) 462-7342",
		"pwp_availability": true,
		"iana_timezone": "US/Central",
		"value_day_text": "$6.50 every Tuesday",
		"unlimited_tier": "2"
	},
	{
		"name": "Regal Macarthur Center",
		"path_name": "regal-macarthur-center-rpx-0365",
		"theatre_code": "0365",
		"address": "300 Monticello Avenue, Ste 330",
		"city": "Norfolk",
		"state": "VA",
		"postal_code": "23510",
		"latitude": 36.85,
		"longitude": -76.29,
		"phone_number": "(844) 462-7342",
		"pwp_availability": true,
		"iana_timezone": "US/Eastern",
		"value_day_text": "$5.25 every Tuesday",
		"unlimited_tier": "1"
	},
	{
		"name": "Regal Downtown West",
		"path_name": "regal-downtown-west-cinema-0103",
		"theatre_code": "0103",
		"address": "1640 Downtown West Blvd.",
		"city": "Knoxville",
		"state": "TN",
		"postal_code": "37919",
		"latitude": 35.922,
		"longitude": -84.0509,
		"phone_number": "(844) 462-7342",
		"pwp_availability": true,
		"iana_timezone": "US/Eastern",
		"value_day_text": "$5.50 every Tuesday",
		"unlimited_tier": "1"
	},
	{
		"name": "Regal Starlight - Charlotte",
		"path_name": "regal-starlight-charlotte-1848",
		"theatre_code": "1848",
		"address": "11240 US Hwy 29",
		"city": "Charlotte",
		"state": "NC",
		"postal_code": "28262",
		"latitude": 35.3338,
		"longitude": -80.7176,
		"phone_number": "(844) 462-7342",
		"pwp_availability": true,
		"iana_timezone": "US/Eastern",
		"value_day_text": "$6.00 every Tuesday",
		"unlimited_tier": "1"
	},
	{
		"name": "Regal Ballston Quarter",
		"path_name": "regal-ballston-quarter-0296",
		"theatre_code": "0296",
		"address": "671 N. Glebe Road",
		"city": "Arlington",
		"state": "VA",
		"postal_code": "22203",
		"latitude": 38.8778,
		"longitude": -77.1106,
		"phone_number": "(844) 462-7342",
		"pwp_availability": true,
		"iana_timezone": "US/Eastern",
		"value_day_text": "$7.00 every Tuesday",
		"unlimited_tier": "2"
	},
	{
		"name": "Regal Village At The Peaks",
		"path_name": "regal-village-at-the-peaks-rpx-1673",
		"theatre_code": "1673",
		"address": "1230 S Hover Road",
		"city": "Longmont",
		"state": "CO",
		"postal_code": "80501",
		"latitude": 40.1476,
		"longitude": -105.127,
		"phone_number": "(844) 462-7342",
		"pwp_availability": true,
		"iana_timezone": "US/Pacific",
		"value_day_text": "$6.00 every Tuesday",
		"unlimited_tier": "2"
	},
	{
		"name": "Regal Northampton",
		"path_name": "regal-northampton-cinema-rpx-0371",
		"theatre_code": "0371",
		"address": "3720 Easton-Nazareth Highway",
		"city": "Easton",
		"state": "PA",
		"postal_code": "18045",
		"latitude": 40.7142,
		"longitude": -75.2822,
		"phone_number": "(844) 462-7342",
		"pwp_availability": true,
		"iana_timezone": "US/Eastern",
		"value_day_text": "$7.00 every Tuesday",
		"unlimited_tier": "2"
	},
	{
		"name": "Regal Belltower",
		"path_name": "regal-belltower-0432",
		"theatre_code": "0432",
		"address": "13499 Belltower Drive",
		"city": "Ft Myers",
		"state": "FL",
		"postal_code": "33907",
		"latitude": 26.5472,
		"longitude": -81.8678,
		"phone_number": "(844) 462-7342",
		"pwp_availability": true,
		"iana_timezone": "US/Eastern",
		"value_day_text": "$6.00 every Tuesday",
		"unlimited_tier": "2"
	},
	{
		"name": "Regal Hollywood - Nashville",
		"path_name": "regal-hollywood-rpx-nashville-0489",
		"theatre_code": "0489",
		"address": "719 Thompson Ln",
		"city": "Nashville",
		"state": "TN",
		"postal_code": "37204",
		"latitude": 36.1122,
		"longitude": -86.7666,
		"phone_number": "(844) 462-7342",
		"pwp_availability": true,
		"iana_timezone": "US/Central",
		"value_day_text": "$6.50 every Tuesday",
		"unlimited_tier": "3"
	},
	{
		"name": "Regal UA Circle Centre",
		"path_name": "regal-ua-circle-centre-1291",
		"theatre_code": "1291",
		"address": "49 West Maryland St, Suite 221",
		"city": "Indianapolis",
		"state": "IN",
		"postal_code": "46204",
		"latitude": 39.7654,
		"longitude": -86.1594,
		"phone_number": "(844) 462-7342",
		"pwp_availability": true,
		"iana_timezone": "US/Eastern",
		"value_day_text": "$7.00 every Tuesday",
		"unlimited_tier": "1"
	},
	{
		"name": "Regal Rockville Center",
		"path_name": "regal-rockville-center-0336",
		"theatre_code": "0336",
		"address": "199 East Montgomery Avenue",
		"city": "Rockville",
		"state": "MD",
		"postal_code": "20850",
		"latitude": 39.0833,
		"longitude": -77.1502,
		"phone_number": "(844) 462-7342",
		"pwp_availability": true,
		"iana_timezone": "US/Eastern",
		"value_day_text": "$7.50 every Tuesday",
		"unlimited_tier": "2"
	},
	{
		"name": "Regal Atlas Park",
		"path_name": "regal-atlas-park-0688",
		"theatre_code": "0688",
		"address": "80-28 Cooper Ave, Suite #6216",
		"city": "Glendale",
		"state": "NY",
		"postal_code": "11385",
		"latitude": 40.709,
		"longitude": -73.8705,
		"phone_number": "(844) 462-7342",
		"pwp_availability": false,
		"iana_timezone": "US/Eastern",
		"value_day_text": "$7.50 every Tuesday",
		"unlimited_tier": "3"
	},
	{
		"name": "Regal Longston Place",
		"path_name": "regal-longston-place-0355",
		"theatre_code": "0355",
		"address": "13317 Meridan St. East",
		"city": "Puyallup",
		"state": "WA",
		"postal_code": "98373",
		"latitude": 47.1357,
		"longitude": -122.2917,
		"phone_number": "(844) 462-7342",
		"pwp_availability": true,
		"iana_timezone": "US/Pacific",
		"value_day_text": "$6.25 every Tuesday",
		"unlimited_tier": "2"
	},
	{
		"name": "Regal Summerlin Luxury",
		"path_name": "regal-summerlin-luxury-0575",
		"theatre_code": "0575",
		"address": "2070 Park Center Drive",
		"city": "Las Vegas",
		"state": "NV",
		"postal_code": "89135",
		"latitude": 36.149,
		"longitude": -115.332,
		"phone_number": "(844) 462-7342",
		"pwp_availability": false,
		"iana_timezone": "US/Pacific",
		"value_day_text": "$7.00 every Tuesday",
		"unlimited_tier": "3"
	},
	{
		"name": "Regal Springfield Town Center",
		"path_name": "regal-springfield-town-center-0595",
		"theatre_code": "0595",
		"address": "6859 Springfield Mall",
		"city": "Springfield",
		"state": "VA",
		"postal_code": "22150",
		"latitude": 38.7731,
		"longitude": -77.174,
		"phone_number": "(844) 462-7342",
		"pwp_availability": false,
		"iana_timezone": "US/Eastern",
		"value_day_text": "$7.00 every Tuesday",
		"unlimited_tier": "3"
	},
	{
		"name": "Regal Warrington Crossing",
		"path_name": "regal-warrington-crossing-0379",
		"theatre_code": "0379",
		"address": "104 Easton Rd., Bldg F",
		"city": "Warrington",
		"state": "PA",
		"postal_code": "18976",
		"latitude": 40.2164,
		"longitude": -75.143,
		"phone_number": "(844) 462-7342",
		"pwp_availability": true,
		"iana_timezone": "US/Eastern",
		"value_day_text": "$6.50 every Tuesday",
		"unlimited_tier": "2"
	},
	{
		"name": "Regal Parkway Plaza",
		"path_name": "regal-parkway-plaza-0388",
		"theatre_code": "0388",
		"address": "405 Parkway Plaza",
		"city": "El Cajon",
		"state": "CA",
		"postal_code": "92020",
		"latitude": 32.8036,
		"longitude": -116.9676,
		"phone_number": "(844) 462-7342",
		"pwp_availability": true,
		"iana_timezone": "US/Pacific",
		"value_day_text": "$6.50 every Tuesday",
		"unlimited_tier": "3"
	},
	{
		"name": "Regal Peoples Plaza",
		"path_name": "regal-peoples-plaza-0133",
		"theatre_code": "0133",
		"address": "1100 Peoples Plaza",
		"city": "Newark",
		"state": "DE",
		"postal_code": "19702",
		"latitude": 39.597,
		"longitude": -75.7512,
		"phone_number": "(844) 462-7342",
		"pwp_availability": true,
		"iana_timezone": "US/Eastern",
		"value_day_text": "$6.50 every Tuesday",
		"unlimited_tier": "2"
	},
	{
		"name": "Regal Grand Central Mall",
		"path_name": "regal-grand-central-mall-0115",
		"theatre_code": "0115",
		"address": "700 Grand Central Mall",
		"city": "Vienna",
		"state": "WV",
		"postal_code": "26105",
		"latitude": 39.305,
		"longitude": -81.5506,
		"phone_number": "(844) 462-7342",
		"pwp_availability": true,
		"iana_timezone": "US/Eastern",
		"value_day_text": "$6.50 every Tuesday",
		"unlimited_tier": "1"
	},
	{
		"name": "Regal Cumberland Mall",
		"path_name": "regal-cumberland-mall-0244",
		"theatre_code": "0244",
		"address": "3849 South Delsea",
		"city": "Vineland",
		"state": "NJ",
		"postal_code": "08360",
		"latitude": 39.4315,
		"longitude": -75.0411,
		"phone_number": "(844) 462-7342",
		"pwp_availability": true,
		"iana_timezone": "US/Eastern",
		"value_day_text": "$7.00 every Tuesday",
		"unlimited_tier": "2"
	},
	{
		"name": "Regal Crocker Park",
		"path_name": "regal-crocker-park-0155",
		"theatre_code": "0155",
		"address": "30147 Detroit Road",
		"city": "Westlake",
		"state": "OH",
		"postal_code": "44145",
		"latitude": 41.4632,
		"longitude": -81.9541,
		"phone_number": "(844) 462-7342",
		"pwp_availability": true,
		"iana_timezone": "US/Eastern",
		"value_day_text": "$6.00 every Tuesday",
		"unlimited_tier": "1"
	},
	{
		"name": "Regal Boone",
		"path_name": "regal-boone-cinema-0217",
		"theatre_code": "0217",
		"address": "210 New Market Street Centre",
		"city": "Boone",
		"state": "NC",
		"postal_code": "28607",
		"latitude": 36.2203,
		"longitude": -81.6592,
		"phone_number": "(844) 462-7342",
		"pwp_availability": true,
		"iana_timezone": "US/Eastern",
		"value_day_text": "$5.50 every Tuesday",
		"unlimited_tier": "1"
	},
	{
		"name": "Regal Kiln Creek",
		"path_name": "regal-kiln-creek-0161",
		"theatre_code": "0161",
		"address": "100 Regal Way",
		"city": "Newport News",
		"state": "VA",
		"postal_code": "23602",
		"latitude": 37.1106,
		"longitude": -76.4735,
		"phone_number": "(844) 462-7342",
		"pwp_availability": true,
		"iana_timezone": "US/Eastern",
		"value_day_text": "$5.00 every Tuesday",
		"unlimited_tier": "1"
	},
	{
		"name": "Regal Medlock Crossing",
		"path_name": "regal-medlock-crossing-rpx-0354",
		"theatre_code": "0354",
		"address": "9700 Medlock Bridge Rd, St 170",
		"city": "Duluth",
		"state": "GA",
		"postal_code": "30097",
		"latitude": 34.018,
		"longitude": -84.1902,
		"phone_number": "(844) 462-7342",
		"pwp_availability": true,
		"iana_timezone": "US/Eastern",
		"value_day_text": "$6.00 every Tuesday",
		"unlimited_tier": "2"
	},
	{
		"name": "Regal Commerce Center",
		"path_name": "regal-commerce-center-rpx-0705",
		"theatre_code": "0705",
		"address": "2399 Route 1 South",
		"city": "North Brunswick",
		"state": "NJ",
		"postal_code": "08902",
		"latitude": 40.4427,
		"longitude": -74.5053,
		"phone_number": "(844) 462-7342",
		"pwp_availability": true,
		"iana_timezone": "US/Eastern",
		"value_day_text": "$5.50 every Tuesday",
		"unlimited_tier": "2"
	},
	{
		"name": "Regal Avenues",
		"path_name": "regal-avenues-4dx-rpx-0241",
		"theatre_code": "0241",
		"address": "9525 Phillips Highway",
		"city": "Jacksonville",
		"state": "FL",
		"postal_code": "32256",
		"latitude": 30.1927,
		"longitude": -81.5647,
		"phone_number": "(844) 462-7342",
		"pwp_availability": true,
		"iana_timezone": "US/Eastern",
		"value_day_text": "$5.50 every Tuesday",
		"unlimited_tier": "1"
	},
	{
		"name": "Regal Village Park",
		"path_name": "regal-village-park-0147",
		"theatre_code": "0147",
		"address": "2222 East 146th Street",
		"city": "Carmel",
		"state": "IN",
		"postal_code": "46033",
		"latitude": 40.0003,
		"longitude": -86.1212,
		"phone_number": "(844) 462-7342",
		"pwp_availability": true,
		"iana_timezone": "US/Eastern",
		"value_day_text": "$5.00 every Tuesday",
		"unlimited_tier": "1"
	},
	{
		"name": "Regal Canyon View",
		"path_name": "regal-canyon-view-0698",
		"theatre_code": "0698",
		"address": "648 Market Street",
		"city": "Grand Junction",
		"state": "CO",
		"postal_code": "81505",
		"latitude": 39.0928,
		"longitude": -108.6053,
		"phone_number": "(844) 462-7342",
		"pwp_availability": true,
		"iana_timezone": "US/Mountain",
		"value_day_text": "$6.00 every Tuesday",
		"unlimited_tier": "2"
	},
	{
		"name": "Regal Arnot Mall",
		"path_name": "regal-arnot-mall-1730",
		"theatre_code": "1730",
		"address": "3300 Chambers Rd",
		"city": "Horseheads",
		"state": "NY",
		"postal_code": "14845",
		"latitude": 42.1542,
		"longitude": -76.8758,
		"phone_number": "(844) 462-7342",
		"pwp_availability": false,
		"iana_timezone": "US/Eastern",
		"value_day_text": "$6.50 every Tuesday",
		"unlimited_tier": "2"
	},
	{
		"name": "Regal Manahawkin",
		"path_name": "regal-manahawkin-1754",
		"theatre_code": "1754",
		"address": "733 Route 72 East",
		"city": "Manahawkin",
		"state": "NJ",
		"postal_code": "08050",
		"latitude": 39.7111,
		"longitude": -74.2789,
		"phone_number": "(844) 462-7342",
		"pwp_availability": true,
		"iana_timezone": "US/Eastern",
		"value_day_text": "$7.00 every Tuesday",
		"unlimited_tier": "2"
	},
	{
		"name": "Regal El Dorado Hills",
		"path_name": "regal-el-dorado-hills-1807",
		"theatre_code": "1807",
		"address": "2101 Vine Street",
		"city": "El Dorado Hills",
		"state": "CA",
		"postal_code": "95762",
		"latitude": 38.652,
		"longitude": -121.0621,
		"phone_number": "(844) 462-7342",
		"pwp_availability": true,
		"iana_timezone": "US/Pacific",
		"value_day_text": "$5.00 every Tuesday",
		"unlimited_tier": "2"
	},
	{
		"name": "Regal Culpeper",
		"path_name": "regal-culpeper-1913",
		"theatre_code": "1913",
		"address": "210 S Main Street",
		"city": "Culpeper",
		"state": "VA",
		"postal_code": "22701",
		"latitude": 38.4727,
		"longitude": -77.9964,
		"phone_number": "(844) 462-7342",
		"pwp_availability": false,
		"iana_timezone": "US/Eastern",
		"value_day_text": "$7.00 every Tuesday",
		"unlimited_tier": "2"
	},
	{
		"name": "Regal Clifton Park",
		"path_name": "regal-clifton-park-rpx-1769",
		"theatre_code": "1769",
		"address": "22 Clifton Country Road",
		"city": "Clifton Park",
		"state": "NY",
		"postal_code": "12065",
		"latitude": 42.8605,
		"longitude": -73.781,
		"phone_number": "(844) 462-7342",
		"pwp_availability": false,
		"iana_timezone": "US/Eastern",
		"value_day_text": "$6.50 every Tuesday",
		"unlimited_tier": "3"
	},
	{
		"name": "Regal Tullahoma",
		"path_name": "regal-tullahoma-0120",
		"theatre_code": "0120",
		"address": "2221 N. Jackson Street",
		"city": "Tullahoma",
		"state": "TN",
		"postal_code": "37388",
		"latitude": 35.3915,
		"longitude": -86.2455,
		"phone_number": "(844) 462-7342",
		"pwp_availability": false,
		"iana_timezone": "US/Central",
		"value_day_text": "$5.50 every Tuesday",
		"unlimited_tier": "1"
	},
	{
		"name": "Regal Starlight - Anderson",
		"path_name": "regal-starlight-anderson-1853",
		"theatre_code": "1853",
		"address": "141 Interstate Boulevard",
		"city": "Anderson",
		"state": "SC",
		"postal_code": "29621",
		"latitude": 34.5757,
		"longitude": -82.7083,
		"phone_number": "(844) 462-7342",
		"pwp_availability": true,
		"iana_timezone": "US/Eastern",
		"value_day_text": "$5.00 every Tuesday",
		"unlimited_tier": "1"
	},
	{
		"name": "Regal Northlake Village",
		"path_name": "regal-northlake-village-1889",
		"theatre_code": "1889",
		"address": "929 North Lake Drive",
		"city": "Lexington",
		"state": "SC",
		"postal_code": "29072",
		"latitude": 33.9933,
		"longitude": -81.2313,
		"phone_number": "(844) 462-7342",
		"pwp_availability": true,
		"iana_timezone": "US/Eastern",
		"value_day_text": "$6.00 every Tuesday",
		"unlimited_tier": "1"
	},
	{
		"name": "Regal Crossgates",
		"path_name": "regal-crossgates-1737",
		"theatre_code": "1737",
		"address": "120 B Washington Avenue Ext",
		"city": "Albany",
		"state": "NY",
		"postal_code": "12203",
		"latitude": 42.6891,
		"longitude": -73.853,
		"phone_number": "(844) 462-7342",
		"pwp_availability": true,
		"iana_timezone": "US/Eastern",
		"value_day_text": "$7.00 every Tuesday",
		"unlimited_tier": "3"
	},
	{
		"name": "Regal Tyler Rose",
		"path_name": "regal-tyler-rose-1635",
		"theatre_code": "1635",
		"address": "1250 Loop 323 South SW",
		"city": "Tyler",
		"state": "TX",
		"postal_code": "75701",
		"latitude": 32.3369,
		"longitude": -95.3402,
		"phone_number": "(844) 462-7342",
		"pwp_availability": true,
		"iana_timezone": "US/Central",
		"value_day_text": "$5.50 every Tuesday",
		"unlimited_tier": "1"
	},
	{
		"name": "Regal Waterford",
		"path_name": "regal-waterford-1703",
		"theatre_code": "1703",
		"address": "123 Cross Rd",
		"city": "Waterford",
		"state": "CT",
		"postal_code": "06385",
		"latitude": 41.3677,
		"longitude": -72.1659,
		"phone_number": "(844) 462-7342",
		"pwp_availability": false,
		"iana_timezone": "US/Eastern",
		"value_day_text": "$7.00 every Tuesday",
		"unlimited_tier": "2"
	},
	{
		"name": "Regal Forum",
		"path_name": "regal-forum-1653",
		"theatre_code": "1653",
		"address": "1101 E. 18th Street",
		"city": "Rolla",
		"state": "MO",
		"postal_code": "65401",
		"latitude": 37.958,
		"longitude": -91.7594,
		"phone_number": "(844) 462-7342",
		"pwp_availability": false,
		"iana_timezone": "US/Central",
		"value_day_text": "$6.00 every Tuesday",
		"unlimited_tier": "1"
	},
	{
		"name": "Regal Killeen",
		"path_name": "regal-killeen-1636",
		"theatre_code": "1636",
		"address": "2501 E. Central Texas Expwy",
		"city": "Killeen",
		"state": "TX",
		"postal_code": "76543",
		"latitude": 31.0896,
		"longitude": -97.7162,
		"phone_number": "(844) 462-7342",
		"pwp_availability": true,
		"iana_timezone": "US/Central",
		"value_day_text": "$5.50 every Tuesday",
		"unlimited_tier": "1"
	},
	{
		"name": "Regal Prince Kuhio",
		"path_name": "regal-prince-kuhio-1652",
		"theatre_code": "1652",
		"address": "111 East Puainako Street",
		"city": "Hilo",
		"state": "HI",
		"postal_code": "96720",
		"latitude": 19.6983,
		"longitude": -155.0649,
		"phone_number": "(844) 462-7342",
		"pwp_availability": true,
		"iana_timezone": "US/Hawaii",
		"value_day_text": "$6.50 every Tuesday",
		"unlimited_tier": "2"
	},
	{
		"name": "Regal Birkdale",
		"path_name": "regal-birkdale-rpx-1842",
		"theatre_code": "1842",
		"address": "16950 Birkdale Commons Pkwy",
		"city": "Huntersville",
		"state": "NC",
		"postal_code": "28078",
		"latitude": 35.4466,
		"longitude": -80.8776,
		"phone_number": "(844) 462-7342",
		"pwp_availability": true,
		"iana_timezone": "US/Eastern",
		"value_day_text": "$5.50 every Tuesday",
		"unlimited_tier": "1"
	},
	{
		"name": "Regal Commonwealth",
		"path_name": "regal-commonwealth-1864",
		"theatre_code": "1864",
		"address": "5001 Commonwealth Centre Pkwy",
		"city": "Midlothian",
		"state": "VA",
		"postal_code": "23112",
		"latitude": 37.4179,
		"longitude": -77.6303,
		"phone_number": "(844) 462-7342",
		"pwp_availability": true,
		"iana_timezone": "US/Eastern",
		"value_day_text": "$6.50 every Tuesday",
		"unlimited_tier": "2"
	},
	{
		"name": "Regal Hudson",
		"path_name": "regal-hudson-cinema-0164",
		"theatre_code": "0164",
		"address": "5339 Darrow Road",
		"city": "Hudson",
		"state": "OH",
		"postal_code": "44236",
		"latitude": 41.211,
		"longitude": -81.4405,
		"phone_number": "(844) 462-7342",
		"pwp_availability": false,
		"iana_timezone": "US/Eastern",
		"value_day_text": "$6.25 every Tuesday",
		"unlimited_tier": "1"
	},
	{
		"name": "Regal Butler Town Center",
		"path_name": "regal-butler-town-center-0219",
		"theatre_code": "0219",
		"address": "3101 SW 35th Blvd Butler Plaza",
		"city": "Gainesville",
		"state": "FL",
		"postal_code": "32608",
		"latitude": 29.6241,
		"longitude": -82.3736,
		"phone_number": "(844) 462-7342",
		"pwp_availability": true,
		"iana_timezone": "US/Eastern",
		"value_day_text": "$6.50 every Tuesday",
		"unlimited_tier": "2"
	},
	{
		"name": "Regal Paseo",
		"path_name": "regal-paseo-1485",
		"theatre_code": "1485",
		"address": "300 E Colorado Blvd.",
		"city": "Pasadena",
		"state": "CA",
		"postal_code": "91101",
		"latitude": 34.14515,
		"longitude": -118.14367,
		"phone_number": "(844) 462-7342",
		"pwp_availability": true,
		"iana_timezone": "US/Pacific",
		"value_day_text": "$7.00 every Tuesday",
		"unlimited_tier": "3"
	}
]