[
    {
        "name": "Regal Rancho Del Rey",
        "path_name": "regal-rancho-del-rey-0361",
        "theatre_code": "0361",
        "message_start": null,
        "message_end": null,
        "message_title": null,
        "theatre_info_message": null,
        "address": "1025 Tierra Del Rey",
        "city": "Chula Vista",
        "state": "CA",
        "postal_code": "91910",
        "latitude": 32.6375,
        "longitude": -117.0194,
        "phone_number": "(844) 462-7342",
        "pwp_availability": true,
        "iana_timezone": "US/Pacific"
    },
    {
        "name": "Regal Parkway Plaza",
        "path_name": "regal-parkway-plaza-0388",
        "theatre_code": "0388",
        "message_start": null,
        "message_end": null,
        "message_title": null,
        "theatre_info_message": null,
        "address": "405 Parkway Plaza",
        "city": "El Cajon",
        "state": "CA",
        "postal_code": "92020",
        "latitude": 32.8036,
        "longitude": -116.9676,
        "phone_number": "(844) 462-7342",
        "pwp_availability": true,
        "iana_timezone": "US/Pacific"
    },
    {
        "name": "Regal Oceanside",
        "path_name": "regal-oceanside-0708",
        "theatre_code": "0708",
        "message_start": null,
        "message_end": null,
        "message_title": null,
        "theatre_info_message": null,
        "address": "401 Mission Ave.",
        "city": "Oceanside",
        "state": "CA",
        "postal_code": "92054",
        "latitude": 33.195,
        "longitude": -117.3798,
        "phone_number": "(844) 462-7342",
        "pwp_availability": true,
        "iana_timezone": "US/Pacific"
    },
    {
        "name": "Regal Edwards San Marcos",
        "path_name": "regal-edwards-san-marcos-1034",
        "theatre_code": "1034",
        "message_start": null,
        "message_end": null,
        "message_title": null,
        "theatre_info_message": null,
        "address": "1180 W San Marcos Boulevard",
        "city": "San Marcos",
        "state": "CA",
        "postal_code": "92069",
        "latitude": 33.1337,
        "longitude": -117.192,
        "phone_number": "(844) 462-7342",
        "pwp_availability": true,
        "iana_timezone": "US/Pacific"
    },
    {
        "name": "Regal Edwards Mira Mesa",
        "path_name": "regal-edwards-mira-mesa-1043",
        "theatre_code": "1043",
        "message_start": null,
        "message_end": null,
        "message_title": null,
        "theatre_info_message": null,
        "address": "10733 Westview Parkway",
        "city": "San Diego",
        "state": "CA",
        "postal_code": "92126",
        "latitude": 32.913,
        "longitude": -117.1421,
        "phone_number": "(844) 462-7342",
        "pwp_availability": true,
        "iana_timezone": "US/Pacific"
    },
    {
        "name": "Regal Edwards Rancho San Diego",
        "path_name": "regal-edwards-rancho-san-diego-1049",
        "theatre_code": "1049",
        "message_start": null,
        "message_end": null,
        "message_title": null,
        "theatre_info_message": null,
        "address": "2951 Jamacha Road",
        "city": "El Cajon",
        "state": "CA",
        "postal_code": "92019",
        "latitude": 32.7398,
        "longitude": -116.9417,
        "phone_number": "(844) 462-7342",
        "pwp_availability": true,
        "iana_timezone": "US/Pacific"
    },
    {
        "name": "Regal Mission Marketplace",
        "path_name": "regal-mission-marketplace-1470",
        "theatre_code": "1470",
        "message_start": null,
        "message_end": null,
        "message_title": null,
        "theatre_info_message": null,
        "address": "431 College Boulevard",
        "city": "Oceanside",
        "state": "CA",
        "postal_code": "92057",
        "latitude": 33.24514,
        "longitude": -117.29396,
        "phone_number": "(844) 462-7342",
        "pwp_availability": true,
        "iana_timezone": "US/Pacific"
    },
    {
        "name": "Regal Carlsbad",
        "path_name": "regal-carlsbad-1778",
        "theatre_code": "1778",
        "message_start": null,
        "message_end": null,
        "message_title": null,
        "theatre_info_message": null,
        "address": "2501 El Camino Real",
        "city": "Carlsbad",
        "state": "CA",
        "postal_code": "92008",
        "latitude": 33.1786,
        "longitude": -117.329,
        "phone_number": "(844) 462-7342",
        "pwp_availability": false,
        "iana_timezone": "US/Pacific"
    },
    {
        "name": "Regal Escondido",
        "path_name": "regal-escondido-1805",
        "theatre_code": "1805",
        "message_start": null,
        "message_end": null,
        "message_title": null,
        "theatre_info_message": null,
        "address": "350 W Valley Parkway",
        "city": "Escondido",
        "state": "CA",
        "postal_code": "92025",
        "latitude": 33.121,
        "longitude": -117.086,
        "phone_number": "(844) 462-7342",
        "pwp_availability": true,
        "iana_timezone": "US/Pacific"
    }
]